[
  {
    "municipio": "TOTAL",
    "total_vinculos": "33761"
  },
  {
    "municipio": "4219309",
    "total_vinculos": "831",
    "municipio_nome": "Videira",
    "latitude": -27.0086,
    "longitude": -51.1543
  },
  {
    "municipio": "5218805",
    "total_vinculos": "758",
    "municipio_nome": "Rio Verde",
    "latitude": -17.7923,
    "longitude": -50.9192
  },
  {
    "municipio": "3148004",
    "total_vinculos": "714",
    "municipio_nome": "Patos de Minas",
    "latitude": -18.5699,
    "longitude": -46.5013
  },
  {
    "municipio": "3145604",
    "total_vinculos": "675",
    "municipio_nome": "Oliveira",
    "latitude": -20.6982,
    "longitude": -44.829
  },
  {
    "municipio": "3147105",
    "total_vinculos": "640",
    "municipio_nome": "Pará de Minas",
    "latitude": -19.8534,
    "longitude": -44.6114
  },
  {
    "municipio": "3170503",
    "total_vinculos": "537",
    "municipio_nome": "Urucânia",
    "latitude": -20.3521,
    "longitude": -42.737
  },
  {
    "municipio": "3135506",
    "total_vinculos": "514",
    "municipio_nome": "Jequeri",
    "latitude": -20.4542,
    "longitude": -42.6651
  },
  {
    "municipio": "3152105",
    "total_vinculos": "507",
    "municipio_nome": "Ponte Nova",
    "latitude": -20.4111,
    "longitude": -42.8978
  },
  {
    "municipio": "5106224",
    "total_vinculos": "483",
    "municipio_nome": "Nova Mutum",
    "latitude": -13.8374,
    "longitude": -56.0743
  },
  {
    "municipio": "4127700",
    "total_vinculos": "468",
    "municipio_nome": "Toledo",
    "latitude": -24.7246,
    "longitude": -53.7412
  },
  {
    "municipio": "5108006",
    "total_vinculos": "418",
    "municipio_nome": "Tapurah",
    "latitude": -12.695,
    "longitude": -56.5178
  },
  {
    "municipio": "3523909",
    "total_vinculos": "417",
    "municipio_nome": "Itu",
    "latitude": -23.2544,
    "longitude": -47.2927
  },
  {
    "municipio": "4104907",
    "total_vinculos": "382",
    "municipio_nome": "Castro",
    "latitude": -24.7891,
    "longitude": -50.0108
  },
  {
    "municipio": "4114609",
    "total_vinculos": "361",
    "municipio_nome": "Marechal Cândido Rondon",
    "latitude": -24.557,
    "longitude": -54.0571
  },
  {
    "municipio": "5108501",
    "total_vinculos": "361",
    "municipio_nome": "Vera",
    "latitude": -12.3017,
    "longitude": -55.3045
  },
  {
    "municipio": "4107538",
    "total_vinculos": "349",
    "municipio_nome": "Entre Rios do Oeste",
    "latitude": -24.7042,
    "longitude": -54.2385
  },
  {
    "municipio": "2927408",
    "total_vinculos": "303",
    "municipio_nome": "Salvador",
    "latitude": -12.9718,
    "longitude": -38.5011
  },
  {
    "municipio": "4315909",
    "total_vinculos": "301",
    "municipio_nome": "Rodeio Bonito",
    "latitude": -27.4742,
    "longitude": -53.1706
  },
  {
    "municipio": "2301000",
    "total_vinculos": "298",
    "municipio_nome": "Aquiraz",
    "latitude": -3.89929,
    "longitude": -38.3896
  },
  {
    "municipio": "4119400",
    "total_vinculos": "279",
    "municipio_nome": "Piraí do Sul",
    "latitude": -24.5306,
    "longitude": -49.9433
  },
  {
    "municipio": "4317905",
    "total_vinculos": "253",
    "municipio_nome": "Santo Cristo",
    "latitude": -27.8263,
    "longitude": -54.662
  },
  {
    "municipio": "5103502",
    "total_vinculos": "245",
    "municipio_nome": "Diamantino",
    "latitude": -14.4037,
    "longitude": -56.4366
  },
  {
    "municipio": "4202800",
    "total_vinculos": "236",
    "municipio_nome": "Braço do Norte",
    "latitude": -28.2681,
    "longitude": -49.1701
  },
  {
    "municipio": "3140506",
    "total_vinculos": "230",
    "municipio_nome": "Martinho Campos",
    "latitude": -19.3306,
    "longitude": -45.2434
  },
  {
    "municipio": "3136702",
    "total_vinculos": "229",
    "municipio_nome": "Juiz de Fora",
    "latitude": -21.7595,
    "longitude": -43.3398
  },
  {
    "municipio": "5005103",
    "total_vinculos": "228",
    "municipio_nome": "Jateí",
    "latitude": -22.4806,
    "longitude": -54.3079
  },
  {
    "municipio": "5300108",
    "total_vinculos": "227",
    "municipio_nome": "Brasília",
    "latitude": -15.7795,
    "longitude": -47.9297
  },
  {
    "municipio": "5007695",
    "total_vinculos": "226",
    "municipio_nome": "São Gabriel do Oeste",
    "latitude": -19.3889,
    "longitude": -54.5507
  },
  {
    "municipio": "4115804",
    "total_vinculos": "224",
    "municipio_nome": "Medianeira",
    "latitude": -25.2977,
    "longitude": -54.0943
  },
  {
    "municipio": "3511409",
    "total_vinculos": "221",
    "municipio_nome": "Cerqueira César",
    "latitude": -23.038,
    "longitude": -49.1655
  },
  {
    "municipio": "2304954",
    "total_vinculos": "215",
    "municipio_nome": "Guaiúba",
    "latitude": -4.04057,
    "longitude": -38.6404
  },
  {
    "municipio": "4120853",
    "total_vinculos": "211",
    "municipio_nome": "Quatro Pontes",
    "latitude": -24.5752,
    "longitude": -53.9759
  },
  {
    "municipio": "4203600",
    "total_vinculos": "194",
    "municipio_nome": "Campos Novos",
    "latitude": -27.4002,
    "longitude": -51.2276
  },
  {
    "municipio": "4110953",
    "total_vinculos": "190",
    "municipio_nome": "Itaipulândia",
    "latitude": -25.1366,
    "longitude": -54.3001
  },
  {
    "municipio": "3163102",
    "total_vinculos": "187",
    "municipio_nome": "São José da Varginha",
    "latitude": -19.7006,
    "longitude": -44.556
  },
  {
    "municipio": "5003702",
    "total_vinculos": "183",
    "municipio_nome": "Dourados",
    "latitude": -22.2231,
    "longitude": -54.812
  },
  {
    "municipio": "3170750",
    "total_vinculos": "181",
    "municipio_nome": "Varjão de Minas",
    "latitude": -18.3741,
    "longitude": -46.0313
  },
  {
    "municipio": "3150208",
    "total_vinculos": "180",
    "municipio_nome": "Piedade de Ponte Nova",
    "latitude": -20.2438,
    "longitude": -42.7379
  },
  {
    "municipio": "3148103",
    "total_vinculos": "179",
    "municipio_nome": "Patrocínio",
    "latitude": -18.9379,
    "longitude": -46.9934
  },
  {
    "municipio": "3170206",
    "total_vinculos": "177",
    "municipio_nome": "Uberlândia",
    "latitude": -18.9141,
    "longitude": -48.2749
  },
  {
    "municipio": "4101606",
    "total_vinculos": "176",
    "municipio_nome": "Arapoti",
    "latitude": -24.1548,
    "longitude": -49.8285
  },
  {
    "municipio": "3510302",
    "total_vinculos": "165",
    "municipio_nome": "Capela do Alto",
    "latitude": -23.4685,
    "longitude": -47.7388
  },
  {
    "municipio": "4112009",
    "total_vinculos": "164",
    "municipio_nome": "Jaguariaíva",
    "latitude": -24.2439,
    "longitude": -49.7066
  },
  {
    "municipio": "4319372",
    "total_vinculos": "164",
    "municipio_nome": "São Pedro do Butiá",
    "latitude": -28.1243,
    "longitude": -54.8926
  },
  {
    "municipio": "4117909",
    "total_vinculos": "159",
    "municipio_nome": "Palotina",
    "latitude": -24.2868,
    "longitude": -53.8404
  },
  {
    "municipio": "3510401",
    "total_vinculos": "157",
    "municipio_nome": "Capivari",
    "latitude": -22.9951,
    "longitude": -47.5071
  },
  {
    "municipio": "5213756",
    "total_vinculos": "157",
    "municipio_nome": "Montividiu",
    "latitude": -17.4439,
    "longitude": -51.1728
  },
  {
    "municipio": "4207577",
    "total_vinculos": "149",
    "municipio_nome": "Iomerê",
    "latitude": -27.0019,
    "longitude": -51.2442
  },
  {
    "municipio": "5004700",
    "total_vinculos": "147",
    "municipio_nome": "Ivinhema",
    "latitude": -22.3046,
    "longitude": -53.8184
  },
  {
    "municipio": "4217501",
    "total_vinculos": "144",
    "municipio_nome": "Seara",
    "latitude": -27.1564,
    "longitude": -52.299
  },
  {
    "municipio": "5104526",
    "total_vinculos": "142",
    "municipio_nome": "Ipiranga do Norte",
    "latitude": -12.2408,
    "longitude": -56.1531
  },
  {
    "municipio": "5107925",
    "total_vinculos": "138",
    "municipio_nome": "Sorriso",
    "latitude": -12.5425,
    "longitude": -55.7211
  },
  {
    "municipio": "4317202",
    "total_vinculos": "137",
    "municipio_nome": "Santa Rosa",
    "latitude": -27.8702,
    "longitude": -54.4796
  },
  {
    "municipio": "4123501",
    "total_vinculos": "136",
    "municipio_nome": "Santa Helena",
    "latitude": -24.8585,
    "longitude": -54.336
  },
  {
    "municipio": "5004007",
    "total_vinculos": "135",
    "municipio_nome": "Glória de Dourados",
    "latitude": -22.4136,
    "longitude": -54.2335
  },
  {
    "municipio": "3153400",
    "total_vinculos": "135",
    "municipio_nome": "Presidente Olegário",
    "latitude": -18.4096,
    "longitude": -46.4165
  },
  {
    "municipio": "5002704",
    "total_vinculos": "131",
    "municipio_nome": "Campo Grande",
    "latitude": -20.4486,
    "longitude": -54.6295
  },
  {
    "municipio": "4218756",
    "total_vinculos": "128",
    "municipio_nome": "Tunápolis",
    "latitude": -26.9681,
    "longitude": -53.6417
  },
  {
    "municipio": "3142809",
    "total_vinculos": "127",
    "municipio_nome": "Monte Alegre de Minas",
    "latitude": -18.869,
    "longitude": -48.881
  },
  {
    "municipio": "2312403",
    "total_vinculos": "127",
    "municipio_nome": "São Gonçalo do Amarante",
    "latitude": -3.60515,
    "longitude": -38.9726
  },
  {
    "municipio": "4204301",
    "total_vinculos": "125",
    "municipio_nome": "Concórdia",
    "latitude": -27.2335,
    "longitude": -52.026
  },
  {
    "municipio": "4320206",
    "total_vinculos": "122",
    "municipio_nome": "Seberi",
    "latitude": -27.4829,
    "longitude": -53.4026
  },
  {
    "municipio": "4212205",
    "total_vinculos": "120",
    "municipio_nome": "Papanduva",
    "latitude": -26.3777,
    "longitude": -50.1419
  },
  {
    "municipio": "4214409",
    "total_vinculos": "119",
    "municipio_nome": "Rio das Antas",
    "latitude": -26.8946,
    "longitude": -51.0674
  },
  {
    "municipio": "3100302",
    "total_vinculos": "118",
    "municipio_nome": "Abre Campo",
    "latitude": -20.2996,
    "longitude": -42.4743
  },
  {
    "municipio": "3117603",
    "total_vinculos": "118",
    "municipio_nome": "Conceição do Pará",
    "latitude": -19.7456,
    "longitude": -44.8945
  },
  {
    "municipio": "3157708",
    "total_vinculos": "116",
    "municipio_nome": "Santa Juliana",
    "latitude": -19.3108,
    "longitude": -47.5322
  },
  {
    "municipio": "5105259",
    "total_vinculos": "116",
    "municipio_nome": "Lucas do Rio Verde",
    "latitude": -13.0588,
    "longitude": -55.9042
  },
  {
    "municipio": "5107602",
    "total_vinculos": "115",
    "municipio_nome": "Rondonópolis",
    "latitude": -16.4673,
    "longitude": -54.6372
  },
  {
    "municipio": "4112751",
    "total_vinculos": "115",
    "municipio_nome": "Jesuítas",
    "latitude": -24.3839,
    "longitude": -53.3849
  },
  {
    "municipio": "3526704",
    "total_vinculos": "113",
    "municipio_nome": "Leme",
    "latitude": -22.1809,
    "longitude": -47.3841
  },
  {
    "municipio": "4104808",
    "total_vinculos": "112",
    "municipio_nome": "Cascavel",
    "latitude": -24.9573,
    "longitude": -53.459
  },
  {
    "municipio": "4205506",
    "total_vinculos": "110",
    "municipio_nome": "Fraiburgo",
    "latitude": -27.0233,
    "longitude": -50.92
  },
  {
    "municipio": "3134202",
    "total_vinculos": "109",
    "municipio_nome": "Ituiutaba",
    "latitude": -18.9772,
    "longitude": -49.4639
  },
  {
    "municipio": "3168507",
    "total_vinculos": "105",
    "municipio_nome": "Teixeiras",
    "latitude": -20.6561,
    "longitude": -42.8564
  },
  {
    "municipio": "2111300",
    "total_vinculos": "101",
    "municipio_nome": "São Luís",
    "latitude": -2.53874,
    "longitude": -44.2825
  },
  {
    "municipio": "3120904",
    "total_vinculos": "100",
    "municipio_nome": "Curvelo",
    "latitude": -18.7527,
    "longitude": -44.4303
  },
  {
    "municipio": "4204202",
    "total_vinculos": "99",
    "municipio_nome": "Chapecó",
    "latitude": -27.1004,
    "longitude": -52.6152
  },
  {
    "municipio": "3201209",
    "total_vinculos": "99",
    "municipio_nome": "Cachoeiro de Itapemirim",
    "latitude": -20.8462,
    "longitude": -41.1198
  },
  {
    "municipio": "3147907",
    "total_vinculos": "95",
    "municipio_nome": "Passos",
    "latitude": -20.7193,
    "longitude": -46.609
  },
  {
    "municipio": "3126109",
    "total_vinculos": "94",
    "municipio_nome": "Formiga",
    "latitude": -20.4618,
    "longitude": -45.4268
  },
  {
    "municipio": "3150802",
    "total_vinculos": "94",
    "municipio_nome": "Piranga",
    "latitude": -20.6834,
    "longitude": -43.2967
  },
  {
    "municipio": "4201505",
    "total_vinculos": "91",
    "municipio_nome": "Armazém",
    "latitude": -28.2448,
    "longitude": -49.0215
  },
  {
    "municipio": "3530805",
    "total_vinculos": "91",
    "municipio_nome": "Mogi Mirim",
    "latitude": -22.4332,
    "longitude": -46.9532
  },
  {
    "municipio": "5201454",
    "total_vinculos": "91",
    "municipio_nome": "Aparecida do Rio Doce",
    "latitude": -18.2941,
    "longitude": -51.1516
  },
  {
    "municipio": "4207650",
    "total_vinculos": "90",
    "municipio_nome": "Iporã do Oeste",
    "latitude": -26.9854,
    "longitude": -53.5355
  },
  {
    "municipio": "4317509",
    "total_vinculos": "89",
    "municipio_nome": "Santo Ângelo",
    "latitude": -28.3001,
    "longitude": -54.2668
  },
  {
    "municipio": "3159803",
    "total_vinculos": "88",
    "municipio_nome": "Santa Vitória",
    "latitude": -18.8414,
    "longitude": -50.1208
  },
  {
    "municipio": "3146909",
    "total_vinculos": "88",
    "municipio_nome": "Papagaios",
    "latitude": -19.4419,
    "longitude": -44.7468
  },
  {
    "municipio": "4209201",
    "total_vinculos": "88",
    "municipio_nome": "Lacerdópolis",
    "latitude": -27.2579,
    "longitude": -51.5577
  },
  {
    "municipio": "3145851",
    "total_vinculos": "87",
    "municipio_nome": "Oratórios",
    "latitude": -20.4298,
    "longitude": -42.7977
  },
  {
    "municipio": "4127502",
    "total_vinculos": "85",
    "municipio_nome": "Tibagi",
    "latitude": -24.5153,
    "longitude": -50.4176
  },
  {
    "municipio": "2311603",
    "total_vinculos": "85",
    "municipio_nome": "Redenção",
    "latitude": -4.21587,
    "longitude": -38.7277
  },
  {
    "municipio": "3169604",
    "total_vinculos": "84",
    "municipio_nome": "Tupaciguara",
    "latitude": -18.5866,
    "longitude": -48.6985
  },
  {
    "municipio": "2903607",
    "total_vinculos": "83",
    "municipio_nome": "Biritinga",
    "latitude": -11.6072,
    "longitude": -38.8051
  },
  {
    "municipio": "2933307",
    "total_vinculos": "82",
    "municipio_nome": "Vitória da Conquista",
    "latitude": -14.8615,
    "longitude": -40.8442
  },
  {
    "municipio": "4320107",
    "total_vinculos": "82",
    "municipio_nome": "Sarandi",
    "latitude": -27.942,
    "longitude": -52.9231
  },
  {
    "municipio": "3543907",
    "total_vinculos": "81",
    "municipio_nome": "Rio Claro",
    "latitude": -22.3984,
    "longitude": -47.5546
  },
  {
    "municipio": "3124104",
    "total_vinculos": "81",
    "municipio_nome": "Esmeraldas",
    "latitude": -19.764,
    "longitude": -44.3065
  },
  {
    "municipio": "2101400",
    "total_vinculos": "81",
    "municipio_nome": "Balsas",
    "latitude": -7.53214,
    "longitude": -46.0372
  },
  {
    "municipio": "4308508",
    "total_vinculos": "80",
    "municipio_nome": "Frederico Westphalen",
    "latitude": -27.3586,
    "longitude": -53.3958
  },
  {
    "municipio": "4204806",
    "total_vinculos": "80",
    "municipio_nome": "Curitibanos",
    "latitude": -27.2824,
    "longitude": -50.5816
  },
  {
    "municipio": "4117453",
    "total_vinculos": "79",
    "municipio_nome": "Ouro Verde do Oeste",
    "latitude": -24.7933,
    "longitude": -53.9043
  },
  {
    "municipio": "4200408",
    "total_vinculos": "79",
    "municipio_nome": "Água Doce",
    "latitude": -26.9985,
    "longitude": -51.5528
  },
  {
    "municipio": "3154903",
    "total_vinculos": "79",
    "municipio_nome": "Rio Casca",
    "latitude": -20.2285,
    "longitude": -42.6462
  },
  {
    "municipio": "4104659",
    "total_vinculos": "79",
    "municipio_nome": "Carambeí",
    "latitude": -24.9152,
    "longitude": -50.0986
  },
  {
    "municipio": "4321907",
    "total_vinculos": "77",
    "municipio_nome": "Três Passos",
    "latitude": -27.4555,
    "longitude": -53.9296
  },
  {
    "municipio": "4205308",
    "total_vinculos": "77",
    "municipio_nome": "Faxinal dos Guedes",
    "latitude": -26.8451,
    "longitude": -52.2596
  },
  {
    "municipio": "3103504",
    "total_vinculos": "76",
    "municipio_nome": "Araguari",
    "latitude": -18.6456,
    "longitude": -48.1934
  },
  {
    "municipio": "3157401",
    "total_vinculos": "76",
    "municipio_nome": "Santa Cruz do Escalvado",
    "latitude": -20.2372,
    "longitude": -42.8169
  },
  {
    "municipio": "4323507",
    "total_vinculos": "76",
    "municipio_nome": "Vista Alegre",
    "latitude": -27.3686,
    "longitude": -53.4919
  },
  {
    "municipio": "4126355",
    "total_vinculos": "75",
    "municipio_nome": "Serranópolis do Iguaçu",
    "latitude": -25.3799,
    "longitude": -54.0518
  },
  {
    "municipio": "4119905",
    "total_vinculos": "75",
    "municipio_nome": "Ponta Grossa",
    "latitude": -25.0916,
    "longitude": -50.1668
  },
  {
    "municipio": "4125704",
    "total_vinculos": "75",
    "municipio_nome": "São Miguel do Iguaçu",
    "latitude": -25.3492,
    "longitude": -54.2405
  },
  {
    "municipio": "4118402",
    "total_vinculos": "73",
    "municipio_nome": "Paranavaí",
    "latitude": -23.0816,
    "longitude": -52.4617
  },
  {
    "municipio": "3515400",
    "total_vinculos": "73",
    "municipio_nome": "Fartura",
    "latitude": -23.3916,
    "longitude": -49.5124
  },
  {
    "municipio": "3154002",
    "total_vinculos": "72",
    "municipio_nome": "Raul Soares",
    "latitude": -20.1061,
    "longitude": -42.4502
  },
  {
    "municipio": "3506003",
    "total_vinculos": "72",
    "municipio_nome": "Bauru",
    "latitude": -22.3246,
    "longitude": -49.0871
  },
  {
    "municipio": "2303006",
    "total_vinculos": "71",
    "municipio_nome": "Caridade",
    "latitude": -4.22514,
    "longitude": -39.1912
  },
  {
    "municipio": "2921005",
    "total_vinculos": "71",
    "municipio_nome": "Mata de São João",
    "latitude": -12.5307,
    "longitude": -38.3009
  },
  {
    "municipio": "4117222",
    "total_vinculos": "71",
    "municipio_nome": "Nova Santa Rosa",
    "latitude": -24.4693,
    "longitude": -53.9552
  },
  {
    "municipio": "3139003",
    "total_vinculos": "69",
    "municipio_nome": "Machado",
    "latitude": -21.6778,
    "longitude": -45.9219
  },
  {
    "municipio": "3167202",
    "total_vinculos": "69",
    "municipio_nome": "Sete Lagoas",
    "latitude": -19.4569,
    "longitude": -44.2413
  },
  {
    "municipio": "4219507",
    "total_vinculos": "69",
    "municipio_nome": "Xanxerê",
    "latitude": -26.8747,
    "longitude": -52.4036
  },
  {
    "municipio": "4216255",
    "total_vinculos": "68",
    "municipio_nome": "São João do Oeste",
    "latitude": -27.0984,
    "longitude": -53.5977
  },
  {
    "municipio": "2307700",
    "total_vinculos": "68",
    "municipio_nome": "Maranguape",
    "latitude": -3.89143,
    "longitude": -38.6829
  },
  {
    "municipio": "3548005",
    "total_vinculos": "67",
    "municipio_nome": "Santo Antônio de Posse",
    "latitude": -22.6029,
    "longitude": -46.9192
  },
  {
    "municipio": "4208401",
    "total_vinculos": "67",
    "municipio_nome": "Itapiranga",
    "latitude": -27.1659,
    "longitude": -53.7166
  },
  {
    "municipio": "4305207",
    "total_vinculos": "67",
    "municipio_nome": "Cerro Largo",
    "latitude": -28.1463,
    "longitude": -54.7428
  },
  {
    "municipio": "2928901",
    "total_vinculos": "65",
    "municipio_nome": "São Desidério",
    "latitude": -12.3572,
    "longitude": -44.9769
  },
  {
    "municipio": "4219606",
    "total_vinculos": "65",
    "municipio_nome": "Xavantina",
    "latitude": -27.0667,
    "longitude": -52.343
  },
  {
    "municipio": "3116704",
    "total_vinculos": "65",
    "municipio_nome": "Coimbra",
    "latitude": -20.8535,
    "longitude": -42.8008
  },
  {
    "municipio": "5007307",
    "total_vinculos": "63",
    "municipio_nome": "Rio Negro",
    "latitude": -19.447,
    "longitude": -54.9859
  },
  {
    "municipio": "4217907",
    "total_vinculos": "62",
    "municipio_nome": "Tangará",
    "latitude": -27.0996,
    "longitude": -51.2473
  },
  {
    "municipio": "3519253",
    "total_vinculos": "62",
    "municipio_nome": "Iaras",
    "latitude": -22.8682,
    "longitude": -49.1634
  },
  {
    "municipio": "4303806",
    "total_vinculos": "62",
    "municipio_nome": "Campinas do Sul",
    "latitude": -27.7174,
    "longitude": -52.6248
  },
  {
    "municipio": "5007406",
    "total_vinculos": "62",
    "municipio_nome": "Rio Verde de Mato Grosso",
    "latitude": -18.9249,
    "longitude": -54.8434
  },
  {
    "municipio": "4206108",
    "total_vinculos": "59",
    "municipio_nome": "Grão Pará",
    "latitude": -28.1809,
    "longitude": -49.2252
  },
  {
    "municipio": "3138807",
    "total_vinculos": "59",
    "municipio_nome": "Luz",
    "latitude": -19.7911,
    "longitude": -45.6794
  },
  {
    "municipio": "3119302",
    "total_vinculos": "59",
    "municipio_nome": "Coromandel",
    "latitude": -18.4734,
    "longitude": -47.1933
  },
  {
    "municipio": "4113304",
    "total_vinculos": "59",
    "municipio_nome": "Laranjeiras do Sul",
    "latitude": -25.4077,
    "longitude": -52.4109
  },
  {
    "municipio": "3116605",
    "total_vinculos": "58",
    "municipio_nome": "Cláudio",
    "latitude": -20.4437,
    "longitude": -44.7673
  },
  {
    "municipio": "4107207",
    "total_vinculos": "58",
    "municipio_nome": "Dois Vizinhos",
    "latitude": -25.7407,
    "longitude": -53.057
  },
  {
    "municipio": "3115300",
    "total_vinculos": "57",
    "municipio_nome": "Cataguases",
    "latitude": -21.3924,
    "longitude": -42.6896
  },
  {
    "municipio": "4314456",
    "total_vinculos": "56",
    "municipio_nome": "Pinhal",
    "latitude": -27.508,
    "longitude": -53.2082
  },
  {
    "municipio": "4110706",
    "total_vinculos": "56",
    "municipio_nome": "Irati",
    "latitude": -25.4697,
    "longitude": -50.6493
  },
  {
    "municipio": "4212106",
    "total_vinculos": "56",
    "municipio_nome": "Palmitos",
    "latitude": -27.0702,
    "longitude": -53.1586
  },
  {
    "municipio": "4206405",
    "total_vinculos": "55",
    "municipio_nome": "Guaraciaba",
    "latitude": -26.6042,
    "longitude": -53.5243
  },
  {
    "municipio": "3205101",
    "total_vinculos": "55",
    "municipio_nome": "Viana",
    "latitude": -20.3825,
    "longitude": -40.4933
  },
  {
    "municipio": "3153103",
    "total_vinculos": "55",
    "municipio_nome": "Presidente Bernardes",
    "latitude": -20.7656,
    "longitude": -43.1895
  },
  {
    "municipio": "3540606",
    "total_vinculos": "55",
    "municipio_nome": "Porto Feliz",
    "latitude": -23.2093,
    "longitude": -47.5251
  },
  {
    "municipio": "3149606",
    "total_vinculos": "54",
    "municipio_nome": "Pequi",
    "latitude": -19.6284,
    "longitude": -44.6604
  },
  {
    "municipio": "4204400",
    "total_vinculos": "54",
    "municipio_nome": "Coronel Freitas",
    "latitude": -26.9057,
    "longitude": -52.7011
  },
  {
    "municipio": "4103453",
    "total_vinculos": "54",
    "municipio_nome": "Cafelândia",
    "latitude": -24.6189,
    "longitude": -53.3207
  },
  {
    "municipio": "2307650",
    "total_vinculos": "54",
    "municipio_nome": "Maracanaú",
    "latitude": -3.86699,
    "longitude": -38.6259
  },
  {
    "municipio": "4213401",
    "total_vinculos": "53",
    "municipio_nome": "Ponte Serrada",
    "latitude": -26.8733,
    "longitude": -52.0112
  },
  {
    "municipio": "3513207",
    "total_vinculos": "53",
    "municipio_nome": "Cristais Paulista",
    "latitude": -20.4036,
    "longitude": -47.4209
  },
  {
    "municipio": "5219712",
    "total_vinculos": "53",
    "municipio_nome": "Santo Antônio da Barra",
    "latitude": -17.5585,
    "longitude": -50.6345
  },
  {
    "municipio": "4213708",
    "total_vinculos": "52",
    "municipio_nome": "Pouso Redondo",
    "latitude": -27.2567,
    "longitude": -49.9301
  },
  {
    "municipio": "5008404",
    "total_vinculos": "52",
    "municipio_nome": "Vicentina",
    "latitude": -22.4098,
    "longitude": -54.4415
  },
  {
    "municipio": "3507605",
    "total_vinculos": "51",
    "municipio_nome": "Bragança Paulista",
    "latitude": -22.9527,
    "longitude": -46.5419
  },
  {
    "municipio": "3514908",
    "total_vinculos": "51",
    "municipio_nome": "Elias Fausto",
    "latitude": -23.0428,
    "longitude": -47.3682
  },
  {
    "municipio": "3107406",
    "total_vinculos": "51",
    "municipio_nome": "Bom Despacho",
    "latitude": -19.7386,
    "longitude": -45.2622
  },
  {
    "municipio": "5204102",
    "total_vinculos": "50",
    "municipio_nome": "Cachoeira Alta",
    "latitude": -18.7618,
    "longitude": -50.9432
  },
  {
    "municipio": "3130200",
    "total_vinculos": "50",
    "municipio_nome": "Igaratinga",
    "latitude": -19.9476,
    "longitude": -44.7063
  },
  {
    "municipio": "4203105",
    "total_vinculos": "49",
    "municipio_nome": "Caibi",
    "latitude": -27.0741,
    "longitude": -53.2458
  },
  {
    "municipio": "4314498",
    "total_vinculos": "49",
    "municipio_nome": "Pinheirinho do Vale",
    "latitude": -27.2109,
    "longitude": -53.608
  },
  {
    "municipio": "3137403",
    "total_vinculos": "48",
    "municipio_nome": "Lagoa Dourada",
    "latitude": -20.9139,
    "longitude": -44.0797
  },
  {
    "municipio": "4115408",
    "total_vinculos": "47",
    "municipio_nome": "Marmeleiro",
    "latitude": -26.1472,
    "longitude": -53.0267
  },
  {
    "municipio": "4322251",
    "total_vinculos": "47",
    "municipio_nome": "Tupandi",
    "latitude": -29.4772,
    "longitude": -51.4174
  },
  {
    "municipio": "3149804",
    "total_vinculos": "47",
    "municipio_nome": "Perdizes",
    "latitude": -19.3434,
    "longitude": -47.2963
  },
  {
    "municipio": "3160108",
    "total_vinculos": "47",
    "municipio_nome": "Santo Antônio do Grama",
    "latitude": -20.3185,
    "longitude": -42.6047
  },
  {
    "municipio": "3502101",
    "total_vinculos": "47",
    "municipio_nome": "Andradina",
    "latitude": -20.8948,
    "longitude": -51.3786
  },
  {
    "municipio": "4203808",
    "total_vinculos": "46",
    "municipio_nome": "Canoinhas",
    "latitude": -26.1766,
    "longitude": -50.395
  },
  {
    "municipio": "4212007",
    "total_vinculos": "46",
    "municipio_nome": "Palma Sola",
    "latitude": -26.3471,
    "longitude": -53.2771
  },
  {
    "municipio": "3507001",
    "total_vinculos": "46",
    "municipio_nome": "Boituva",
    "latitude": -23.2855,
    "longitude": -47.6786
  },
  {
    "municipio": "5102678",
    "total_vinculos": "46",
    "municipio_nome": "Campo Verde",
    "latitude": -15.545,
    "longitude": -55.1626
  },
  {
    "municipio": "3164605",
    "total_vinculos": "46",
    "municipio_nome": "São Sebastião do Oeste",
    "latitude": -20.2758,
    "longitude": -45.0063
  },
  {
    "municipio": "3166808",
    "total_vinculos": "46",
    "municipio_nome": "Serra do Salitre",
    "latitude": -19.1083,
    "longitude": -46.6961
  },
  {
    "municipio": "5007208",
    "total_vinculos": "45",
    "municipio_nome": "Rio Brilhante",
    "latitude": -21.8033,
    "longitude": -54.5427
  },
  {
    "municipio": "3535804",
    "total_vinculos": "45",
    "municipio_nome": "Paranapanema",
    "latitude": -23.3862,
    "longitude": -48.7214
  },
  {
    "municipio": "5211909",
    "total_vinculos": "45",
    "municipio_nome": "Jataí",
    "latitude": -17.8784,
    "longitude": -51.7204
  },
  {
    "municipio": "4320305",
    "total_vinculos": "45",
    "municipio_nome": "Selbach",
    "latitude": -28.6294,
    "longitude": -52.9498
  },
  {
    "municipio": "4202081",
    "total_vinculos": "45",
    "municipio_nome": "Bandeirante",
    "latitude": -26.7705,
    "longitude": -53.6413
  },
  {
    "municipio": "2709400",
    "total_vinculos": "45",
    "municipio_nome": "Viçosa",
    "latitude": -9.36763,
    "longitude": -36.2431
  },
  {
    "municipio": "2108207",
    "total_vinculos": "44",
    "municipio_nome": "Pedreiras",
    "latitude": -4.56482,
    "longitude": -44.6006
  },
  {
    "municipio": "4108205",
    "total_vinculos": "44",
    "municipio_nome": "Formosa do Oeste",
    "latitude": -24.2951,
    "longitude": -53.3114
  },
  {
    "municipio": "4115853",
    "total_vinculos": "44",
    "municipio_nome": "Mercedes",
    "latitude": -24.4538,
    "longitude": -54.1618
  },
  {
    "municipio": "5106240",
    "total_vinculos": "44",
    "municipio_nome": "Nova Ubiratã",
    "latitude": -12.9834,
    "longitude": -55.2556
  },
  {
    "municipio": "3203809",
    "total_vinculos": "44",
    "municipio_nome": "Muqui",
    "latitude": -20.9509,
    "longitude": -41.346
  },
  {
    "municipio": "2916203",
    "total_vinculos": "44",
    "municipio_nome": "Itapé",
    "latitude": -14.8876,
    "longitude": -39.4239
  },
  {
    "municipio": "4208609",
    "total_vinculos": "43",
    "municipio_nome": "Jaborá",
    "latitude": -27.1782,
    "longitude": -51.7279
  },
  {
    "municipio": "4218608",
    "total_vinculos": "43",
    "municipio_nome": "Trombudo Central",
    "latitude": -27.3033,
    "longitude": -49.793
  },
  {
    "municipio": "4203006",
    "total_vinculos": "42",
    "municipio_nome": "Caçador",
    "latitude": -26.7757,
    "longitude": -51.012
  },
  {
    "municipio": "4316477",
    "total_vinculos": "42",
    "municipio_nome": "Salvador das Missões",
    "latitude": -28.1233,
    "longitude": -54.8373
  },
  {
    "municipio": "4210555",
    "total_vinculos": "42",
    "municipio_nome": "Marema",
    "latitude": -26.8024,
    "longitude": -52.6264
  },
  {
    "municipio": "3138609",
    "total_vinculos": "42",
    "municipio_nome": "Lima Duarte",
    "latitude": -21.8386,
    "longitude": -43.7934
  },
  {
    "municipio": "4316204",
    "total_vinculos": "42",
    "municipio_nome": "Rondinha",
    "latitude": -27.8315,
    "longitude": -52.9081
  },
  {
    "municipio": "4305371",
    "total_vinculos": "41",
    "municipio_nome": "Charrua",
    "latitude": -27.9493,
    "longitude": -52.015
  },
  {
    "municipio": "3530706",
    "total_vinculos": "41",
    "municipio_nome": "Mogi Guaçu",
    "latitude": -22.3675,
    "longitude": -46.9428
  },
  {
    "municipio": "4319307",
    "total_vinculos": "41",
    "municipio_nome": "São Paulo das Missões",
    "latitude": -28.0195,
    "longitude": -54.9404
  },
  {
    "municipio": "3102506",
    "total_vinculos": "40",
    "municipio_nome": "Amparo do Serra",
    "latitude": -20.5051,
    "longitude": -42.8009
  },
  {
    "municipio": "4204905",
    "total_vinculos": "40",
    "municipio_nome": "Descanso",
    "latitude": -26.827,
    "longitude": -53.5034
  },
  {
    "municipio": "5005251",
    "total_vinculos": "39",
    "municipio_nome": "Laguna Carapã",
    "latitude": -22.5448,
    "longitude": -55.1502
  },
  {
    "municipio": "1200104",
    "total_vinculos": "39",
    "municipio_nome": "Brasiléia",
    "latitude": -10.995,
    "longitude": -68.7497
  },
  {
    "municipio": "2310852",
    "total_vinculos": "38",
    "municipio_nome": "Pindoretama",
    "latitude": -4.01584,
    "longitude": -38.3061
  },
  {
    "municipio": "4214904",
    "total_vinculos": "38",
    "municipio_nome": "Rio Fortuna",
    "latitude": -28.1244,
    "longitude": -49.1068
  },
  {
    "municipio": "4304697",
    "total_vinculos": "38",
    "municipio_nome": "Capitão",
    "latitude": -29.2674,
    "longitude": -51.9853
  },
  {
    "municipio": "4211009",
    "total_vinculos": "38",
    "municipio_nome": "Mondaí",
    "latitude": -27.1008,
    "longitude": -53.4032
  },
  {
    "municipio": "4101507",
    "total_vinculos": "38",
    "municipio_nome": "Arapongas",
    "latitude": -23.4153,
    "longitude": -51.4259
  },
  {
    "municipio": "3143005",
    "total_vinculos": "37",
    "municipio_nome": "Monte Belo",
    "latitude": -21.3271,
    "longitude": -46.3635
  },
  {
    "municipio": "4315354",
    "total_vinculos": "37",
    "municipio_nome": "Quinze de Novembro",
    "latitude": -28.7466,
    "longitude": -53.1011
  },
  {
    "municipio": "4322301",
    "total_vinculos": "36",
    "municipio_nome": "Tuparendi",
    "latitude": -27.7598,
    "longitude": -54.4814
  },
  {
    "municipio": "4101804",
    "total_vinculos": "36",
    "municipio_nome": "Araucária",
    "latitude": -25.5859,
    "longitude": -49.4047
  },
  {
    "municipio": "3105103",
    "total_vinculos": "36",
    "municipio_nome": "Bambuí",
    "latitude": -20.0166,
    "longitude": -45.9754
  },
  {
    "municipio": "4208500",
    "total_vinculos": "36",
    "municipio_nome": "Ituporanga",
    "latitude": -27.4101,
    "longitude": -49.5963
  },
  {
    "municipio": "4200101",
    "total_vinculos": "36",
    "municipio_nome": "Abelardo Luz",
    "latitude": -26.5716,
    "longitude": -52.3229
  },
  {
    "municipio": "3126000",
    "total_vinculos": "35",
    "municipio_nome": "Florestal",
    "latitude": -19.888,
    "longitude": -44.4318
  },
  {
    "municipio": "4309555",
    "total_vinculos": "35",
    "municipio_nome": "Harmonia",
    "latitude": -29.5456,
    "longitude": -51.4185
  },
  {
    "municipio": "4125753",
    "total_vinculos": "35",
    "municipio_nome": "São Pedro do Iguaçu",
    "latitude": -24.9373,
    "longitude": -53.8521
  },
  {
    "municipio": "4323309",
    "total_vinculos": "35",
    "municipio_nome": "Vila Flores",
    "latitude": -28.8598,
    "longitude": -51.5504
  },
  {
    "municipio": "5221551",
    "total_vinculos": "35",
    "municipio_nome": "Turvelândia",
    "latitude": -17.8502,
    "longitude": -50.3024
  },
  {
    "municipio": "4300661",
    "total_vinculos": "35",
    "municipio_nome": "André da Rocha",
    "latitude": -28.6283,
    "longitude": -51.5797
  },
  {
    "municipio": "1303569",
    "total_vinculos": "34",
    "municipio_nome": "Rio Preto da Eva",
    "latitude": -2.7045,
    "longitude": -59.6858
  },
  {
    "municipio": "4115606",
    "total_vinculos": "34",
    "municipio_nome": "Matelândia",
    "latitude": -25.2496,
    "longitude": -53.9935
  },
  {
    "municipio": "5219308",
    "total_vinculos": "34",
    "municipio_nome": "Santa Helena de Goiás",
    "latitude": -17.8115,
    "longitude": -50.5977
  },
  {
    "municipio": "4321006",
    "total_vinculos": "34",
    "municipio_nome": "Tapera",
    "latitude": -28.6277,
    "longitude": -52.8613
  },
  {
    "municipio": "5216403",
    "total_vinculos": "34",
    "municipio_nome": "Paraúna",
    "latitude": -16.9463,
    "longitude": -50.4484
  },
  {
    "municipio": "4321303",
    "total_vinculos": "34",
    "municipio_nome": "Taquari",
    "latitude": -29.7943,
    "longitude": -51.8653
  },
  {
    "municipio": "5007901",
    "total_vinculos": "33",
    "municipio_nome": "Sidrolândia",
    "latitude": -20.9302,
    "longitude": -54.9692
  },
  {
    "municipio": "3131901",
    "total_vinculos": "33",
    "municipio_nome": "Itabirito",
    "latitude": -20.2501,
    "longitude": -43.8038
  },
  {
    "municipio": "4105003",
    "total_vinculos": "33",
    "municipio_nome": "Catanduvas",
    "latitude": -25.2044,
    "longitude": -53.1548
  },
  {
    "municipio": "4300703",
    "total_vinculos": "33",
    "municipio_nome": "Anta Gorda",
    "latitude": -28.9698,
    "longitude": -52.0102
  },
  {
    "municipio": "4215505",
    "total_vinculos": "33",
    "municipio_nome": "Santa Cecília",
    "latitude": -26.9592,
    "longitude": -50.4252
  },
  {
    "municipio": "4307450",
    "total_vinculos": "33",
    "municipio_nome": "Esperança do Sul",
    "latitude": -27.3603,
    "longitude": -53.9891
  },
  {
    "municipio": "4323705",
    "total_vinculos": "33",
    "municipio_nome": "Vista Gaúcha",
    "latitude": -27.2902,
    "longitude": -53.6974
  },
  {
    "municipio": "4114005",
    "total_vinculos": "33",
    "municipio_nome": "Mamborê",
    "latitude": -24.317,
    "longitude": -52.5271
  },
  {
    "municipio": "4200556",
    "total_vinculos": "32",
    "municipio_nome": "Águas Frias",
    "latitude": -26.8794,
    "longitude": -52.8568
  },
  {
    "municipio": "3133501",
    "total_vinculos": "32",
    "municipio_nome": "Itapecerica",
    "latitude": -20.4704,
    "longitude": -45.127
  },
  {
    "municipio": "4317558",
    "total_vinculos": "32",
    "municipio_nome": "Santo Antônio do Palma",
    "latitude": -28.4956,
    "longitude": -52.0267
  },
  {
    "municipio": "3119104",
    "total_vinculos": "32",
    "municipio_nome": "Corinto",
    "latitude": -18.369,
    "longitude": -44.4542
  },
  {
    "municipio": "2308708",
    "total_vinculos": "32",
    "municipio_nome": "Morada Nova",
    "latitude": -5.09736,
    "longitude": -38.3702
  },
  {
    "municipio": "4109401",
    "total_vinculos": "32",
    "municipio_nome": "Guarapuava",
    "latitude": -25.3902,
    "longitude": -51.4623
  },
  {
    "municipio": "3205036",
    "total_vinculos": "32",
    "municipio_nome": "Vargem Alta",
    "latitude": -20.669,
    "longitude": -41.0179
  },
  {
    "municipio": "4107405",
    "total_vinculos": "32",
    "municipio_nome": "Enéas Marques",
    "latitude": -25.9445,
    "longitude": -53.1659
  },
  {
    "municipio": "4319109",
    "total_vinculos": "32",
    "municipio_nome": "São Martinho",
    "latitude": -27.7112,
    "longitude": -53.9699
  },
  {
    "municipio": "3105608",
    "total_vinculos": "32",
    "municipio_nome": "Barbacena",
    "latitude": -21.2214,
    "longitude": -43.7703
  },
  {
    "municipio": "3158003",
    "total_vinculos": "31",
    "municipio_nome": "Santa Maria de Itabira",
    "latitude": -19.4431,
    "longitude": -43.1064
  },
  {
    "municipio": "5006606",
    "total_vinculos": "31",
    "municipio_nome": "Ponta Porã",
    "latitude": -22.5296,
    "longitude": -55.7203
  },
  {
    "municipio": "4208005",
    "total_vinculos": "31",
    "municipio_nome": "Itá",
    "latitude": -27.2907,
    "longitude": -52.3212
  },
  {
    "municipio": "4321451",
    "total_vinculos": "31",
    "municipio_nome": "Teutônia",
    "latitude": -29.4482,
    "longitude": -51.8044
  },
  {
    "municipio": "5206206",
    "total_vinculos": "31",
    "municipio_nome": "Cristalina",
    "latitude": -16.7676,
    "longitude": -47.6131
  },
  {
    "municipio": "4215406",
    "total_vinculos": "31",
    "municipio_nome": "Salto Veloso",
    "latitude": -26.903,
    "longitude": -51.4043
  },
  {
    "municipio": "3513702",
    "total_vinculos": "31",
    "municipio_nome": "Descalvado",
    "latitude": -21.9002,
    "longitude": -47.6181
  },
  {
    "municipio": "3111408",
    "total_vinculos": "31",
    "municipio_nome": "Campo Florido",
    "latitude": -19.7631,
    "longitude": -48.5716
  },
  {
    "municipio": "4219101",
    "total_vinculos": "31",
    "municipio_nome": "Vargeão",
    "latitude": -26.8621,
    "longitude": -52.1549
  },
  {
    "municipio": "3500758",
    "total_vinculos": "31",
    "municipio_nome": "Alambari",
    "latitude": -23.5503,
    "longitude": -47.898
  },
  {
    "municipio": "4118451",
    "total_vinculos": "30",
    "municipio_nome": "Pato Bragado",
    "latitude": -24.6271,
    "longitude": -54.2265
  },
  {
    "municipio": "4108403",
    "total_vinculos": "30",
    "municipio_nome": "Francisco Beltrão",
    "latitude": -26.0817,
    "longitude": -53.0535
  },
  {
    "municipio": "4321493",
    "total_vinculos": "30",
    "municipio_nome": "Toropi",
    "latitude": -29.4782,
    "longitude": -54.2244
  },
  {
    "municipio": "4316303",
    "total_vinculos": "29",
    "municipio_nome": "Roque Gonzales",
    "latitude": -28.1297,
    "longitude": -55.0266
  },
  {
    "municipio": "4321402",
    "total_vinculos": "29",
    "municipio_nome": "Tenente Portela",
    "latitude": -27.3711,
    "longitude": -53.7585
  },
  {
    "municipio": "4315800",
    "total_vinculos": "29",
    "municipio_nome": "Roca Sales",
    "latitude": -29.2884,
    "longitude": -51.8658
  },
  {
    "municipio": "4210050",
    "total_vinculos": "29",
    "municipio_nome": "Macieira",
    "latitude": -26.8552,
    "longitude": -51.3705
  },
  {
    "municipio": "4315131",
    "total_vinculos": "29",
    "municipio_nome": "Pouso Novo",
    "latitude": -29.1738,
    "longitude": -52.2136
  },
  {
    "municipio": "3526902",
    "total_vinculos": "28",
    "municipio_nome": "Limeira",
    "latitude": -22.566,
    "longitude": -47.397
  },
  {
    "municipio": "5004502",
    "total_vinculos": "28",
    "municipio_nome": "Itaporã",
    "latitude": -22.08,
    "longitude": -54.7934
  },
  {
    "municipio": "4102000",
    "total_vinculos": "28",
    "municipio_nome": "Assis Chateaubriand",
    "latitude": -24.4168,
    "longitude": -53.5213
  },
  {
    "municipio": "3512605",
    "total_vinculos": "28",
    "municipio_nome": "Coronel Macedo",
    "latitude": -23.6261,
    "longitude": -49.31
  },
  {
    "municipio": "5212303",
    "total_vinculos": "28",
    "municipio_nome": "Leopoldo de Bulhões",
    "latitude": -16.619,
    "longitude": -48.7428
  },
  {
    "municipio": "4315107",
    "total_vinculos": "28",
    "municipio_nome": "Porto Xavier",
    "latitude": -27.9082,
    "longitude": -55.1379
  },
  {
    "municipio": "3140902",
    "total_vinculos": "28",
    "municipio_nome": "Matipó",
    "latitude": -20.2873,
    "longitude": -42.3401
  },
  {
    "municipio": "3152808",
    "total_vinculos": "28",
    "municipio_nome": "Prata",
    "latitude": -19.3086,
    "longitude": -48.9276
  },
  {
    "municipio": "5106307",
    "total_vinculos": "28",
    "municipio_nome": "Paranatinga",
    "latitude": -14.4265,
    "longitude": -54.0524
  },
  {
    "municipio": "4312658",
    "total_vinculos": "28",
    "municipio_nome": "Não-Me-Toque",
    "latitude": -28.4548,
    "longitude": -52.8182
  },
  {
    "municipio": "4206652",
    "total_vinculos": "27",
    "municipio_nome": "Guatambú",
    "latitude": -27.1341,
    "longitude": -52.7887
  },
  {
    "municipio": "4219705",
    "total_vinculos": "27",
    "municipio_nome": "Xaxim",
    "latitude": -26.9596,
    "longitude": -52.5374
  },
  {
    "municipio": "4111209",
    "total_vinculos": "27",
    "municipio_nome": "Itapejara d'Oeste",
    "latitude": -25.9619,
    "longitude": -52.8152
  },
  {
    "municipio": "3131109",
    "total_vinculos": "27",
    "municipio_nome": "Inimutaba",
    "latitude": -18.7271,
    "longitude": -44.3584
  },
  {
    "municipio": "4316501",
    "total_vinculos": "26",
    "municipio_nome": "Salvador do Sul",
    "latitude": -29.4386,
    "longitude": -51.5077
  },
  {
    "municipio": "5203500",
    "total_vinculos": "26",
    "municipio_nome": "Bom Jesus de Goiás",
    "latitude": -18.2173,
    "longitude": -49.74
  },
  {
    "municipio": "4214201",
    "total_vinculos": "26",
    "municipio_nome": "Quilombo",
    "latitude": -26.7264,
    "longitude": -52.724
  },
  {
    "municipio": "3145802",
    "total_vinculos": "26",
    "municipio_nome": "Onça de Pitangui",
    "latitude": -19.7276,
    "longitude": -44.8058
  },
  {
    "municipio": "2903706",
    "total_vinculos": "26",
    "municipio_nome": "Boa Nova",
    "latitude": -14.3598,
    "longitude": -40.2064
  },
  {
    "municipio": "4218301",
    "total_vinculos": "25",
    "municipio_nome": "Três Barras",
    "latitude": -26.1056,
    "longitude": -50.3197
  },
  {
    "municipio": "5208608",
    "total_vinculos": "25",
    "municipio_nome": "Goianésia",
    "latitude": -15.3118,
    "longitude": -49.1162
  },
  {
    "municipio": "3133808",
    "total_vinculos": "25",
    "municipio_nome": "Itaúna",
    "latitude": -20.0818,
    "longitude": -44.5801
  },
  {
    "municipio": "3550100",
    "total_vinculos": "25",
    "municipio_nome": "São Manuel",
    "latitude": -22.7321,
    "longitude": -48.5723
  },
  {
    "municipio": "3549904",
    "total_vinculos": "25",
    "municipio_nome": "São José dos Campos",
    "latitude": -23.1896,
    "longitude": -45.8841
  },
  {
    "municipio": "3549706",
    "total_vinculos": "25",
    "municipio_nome": "São José do Rio Pardo",
    "latitude": -21.5953,
    "longitude": -46.8873
  },
  {
    "municipio": "4305603",
    "total_vinculos": "25",
    "municipio_nome": "Colorado",
    "latitude": -28.5258,
    "longitude": -52.9928
  },
  {
    "municipio": "4207809",
    "total_vinculos": "24",
    "municipio_nome": "Irani",
    "latitude": -27.0287,
    "longitude": -51.9012
  },
  {
    "municipio": "4309704",
    "total_vinculos": "24",
    "municipio_nome": "Humaitá",
    "latitude": -27.5691,
    "longitude": -53.9695
  },
  {
    "municipio": "4217006",
    "total_vinculos": "24",
    "municipio_nome": "São Ludgero",
    "latitude": -28.3144,
    "longitude": -49.1806
  },
  {
    "municipio": "4201604",
    "total_vinculos": "24",
    "municipio_nome": "Arroio Trinta",
    "latitude": -26.9257,
    "longitude": -51.3407
  },
  {
    "municipio": "5217609",
    "total_vinculos": "24",
    "municipio_nome": "Planaltina",
    "latitude": -15.452,
    "longitude": -47.6089
  },
  {
    "municipio": "4218855",
    "total_vinculos": "23",
    "municipio_nome": "União do Oeste",
    "latitude": -26.762,
    "longitude": -52.8541
  },
  {
    "municipio": "4313011",
    "total_vinculos": "23",
    "municipio_nome": "Nova Candelária",
    "latitude": -27.6137,
    "longitude": -54.1074
  },
  {
    "municipio": "4307807",
    "total_vinculos": "23",
    "municipio_nome": "Estrela",
    "latitude": -29.5002,
    "longitude": -51.9495
  },
  {
    "municipio": "4212601",
    "total_vinculos": "23",
    "municipio_nome": "Peritiba",
    "latitude": -27.3754,
    "longitude": -51.9018
  },
  {
    "municipio": "4122156",
    "total_vinculos": "23",
    "municipio_nome": "Rio Bonito do Iguaçu",
    "latitude": -25.4874,
    "longitude": -52.5292
  },
  {
    "municipio": "4218509",
    "total_vinculos": "23",
    "municipio_nome": "Treze Tílias",
    "latitude": -27.0026,
    "longitude": -51.4084
  },
  {
    "municipio": "3118304",
    "total_vinculos": "23",
    "municipio_nome": "Conselheiro Lafaiete",
    "latitude": -20.6634,
    "longitude": -43.7846
  },
  {
    "municipio": "5201108",
    "total_vinculos": "23",
    "municipio_nome": "Anápolis",
    "latitude": -16.3281,
    "longitude": -48.953
  },
  {
    "municipio": "3109006",
    "total_vinculos": "23",
    "municipio_nome": "Brumadinho",
    "latitude": -20.151,
    "longitude": -44.2007
  },
  {
    "municipio": "4304309",
    "total_vinculos": "22",
    "municipio_nome": "Cândido Godói",
    "latitude": -27.9515,
    "longitude": -54.7517
  },
  {
    "municipio": "1400100",
    "total_vinculos": "22",
    "municipio_nome": "Boa Vista",
    "latitude": 2.82384,
    "longitude": -60.6753
  },
  {
    "municipio": "4109302",
    "total_vinculos": "22",
    "municipio_nome": "Guaraniaçu",
    "latitude": -25.0968,
    "longitude": -52.8755
  },
  {
    "municipio": "3158904",
    "total_vinculos": "22",
    "municipio_nome": "Santana do Manhuaçu",
    "latitude": -20.1031,
    "longitude": -41.9278
  },
  {
    "municipio": "3143203",
    "total_vinculos": "22",
    "municipio_nome": "Monte Santo de Minas",
    "latitude": -21.1873,
    "longitude": -46.9753
  },
  {
    "municipio": "4106571",
    "total_vinculos": "21",
    "municipio_nome": "Cruzeiro do Iguaçu",
    "latitude": -25.6192,
    "longitude": -53.1285
  },
  {
    "municipio": "3536802",
    "total_vinculos": "21",
    "municipio_nome": "Pedra Bela",
    "latitude": -22.7902,
    "longitude": -46.4455
  },
  {
    "municipio": "4215307",
    "total_vinculos": "21",
    "municipio_nome": "Salete",
    "latitude": -26.9798,
    "longitude": -49.9988
  },
  {
    "municipio": "4314001",
    "total_vinculos": "21",
    "municipio_nome": "Paraí",
    "latitude": -28.5964,
    "longitude": -51.7896
  },
  {
    "municipio": "3142106",
    "total_vinculos": "21",
    "municipio_nome": "Miradouro",
    "latitude": -20.8899,
    "longitude": -42.3458
  },
  {
    "municipio": "4216008",
    "total_vinculos": "21",
    "municipio_nome": "São Carlos",
    "latitude": -27.0798,
    "longitude": -53.0037
  },
  {
    "municipio": "4213005",
    "total_vinculos": "21",
    "municipio_nome": "Pinheiro Preto",
    "latitude": -27.0483,
    "longitude": -51.2243
  },
  {
    "municipio": "2914000",
    "total_vinculos": "21",
    "municipio_nome": "Ipirá",
    "latitude": -12.1561,
    "longitude": -39.7359
  },
  {
    "municipio": "3500550",
    "total_vinculos": "21",
    "municipio_nome": "Águas de Santa Bárbara",
    "latitude": -22.8812,
    "longitude": -49.2421
  },
  {
    "municipio": "4214607",
    "total_vinculos": "21",
    "municipio_nome": "Rio do Oeste",
    "latitude": -27.1952,
    "longitude": -49.7989
  },
  {
    "municipio": "5106372",
    "total_vinculos": "21",
    "municipio_nome": "Pedra Preta",
    "latitude": -16.6245,
    "longitude": -54.4722
  },
  {
    "municipio": "4105706",
    "total_vinculos": "20",
    "municipio_nome": "Clevelândia",
    "latitude": -26.4043,
    "longitude": -52.3508
  },
  {
    "municipio": "4310009",
    "total_vinculos": "20",
    "municipio_nome": "Ibirubá",
    "latitude": -28.6302,
    "longitude": -53.0961
  },
  {
    "municipio": "4313300",
    "total_vinculos": "20",
    "municipio_nome": "Nova Prata",
    "latitude": -28.7799,
    "longitude": -51.6113
  },
  {
    "municipio": "3109402",
    "total_vinculos": "20",
    "municipio_nome": "Buritizeiro",
    "latitude": -17.3656,
    "longitude": -44.9606
  },
  {
    "municipio": "3502903",
    "total_vinculos": "20",
    "municipio_nome": "Araçoiaba da Serra",
    "latitude": -23.5029,
    "longitude": -47.6166
  },
  {
    "municipio": "4310900",
    "total_vinculos": "20",
    "municipio_nome": "Jacutinga",
    "latitude": -27.7291,
    "longitude": -52.5372
  },
  {
    "municipio": "4323770",
    "total_vinculos": "20",
    "municipio_nome": "Westfália",
    "latitude": -29.4263,
    "longitude": -51.7645
  },
  {
    "municipio": "4315404",
    "total_vinculos": "20",
    "municipio_nome": "Redentora",
    "latitude": -27.664,
    "longitude": -53.6407
  },
  {
    "municipio": "5211800",
    "total_vinculos": "20",
    "municipio_nome": "Jaraguá",
    "latitude": -15.7529,
    "longitude": -49.3344
  },
  {
    "municipio": "4304507",
    "total_vinculos": "20",
    "municipio_nome": "Canguçu",
    "latitude": -31.396,
    "longitude": -52.6783
  },
  {
    "municipio": "3147402",
    "total_vinculos": "20",
    "municipio_nome": "Paraopeba",
    "latitude": -19.2732,
    "longitude": -44.4044
  },
  {
    "municipio": "2930709",
    "total_vinculos": "20",
    "municipio_nome": "Simões Filho",
    "latitude": -12.7866,
    "longitude": -38.4029
  },
  {
    "municipio": "2700300",
    "total_vinculos": "20",
    "municipio_nome": "Arapiraca",
    "latitude": -9.75487,
    "longitude": -36.6615
  },
  {
    "municipio": "4211702",
    "total_vinculos": "19",
    "municipio_nome": "Orleans",
    "latitude": -28.3487,
    "longitude": -49.2986
  },
  {
    "municipio": "4315172",
    "total_vinculos": "19",
    "municipio_nome": "Protásio Alves",
    "latitude": -28.7572,
    "longitude": -51.4757
  },
  {
    "municipio": "4209003",
    "total_vinculos": "19",
    "municipio_nome": "Joaçaba",
    "latitude": -27.1721,
    "longitude": -51.5108
  },
  {
    "municipio": "4128559",
    "total_vinculos": "19",
    "municipio_nome": "Vera Cruz do Oeste",
    "latitude": -25.0577,
    "longitude": -53.8771
  },
  {
    "municipio": "4306809",
    "total_vinculos": "19",
    "municipio_nome": "Encantado",
    "latitude": -29.2351,
    "longitude": -51.8703
  },
  {
    "municipio": "3136306",
    "total_vinculos": "19",
    "municipio_nome": "João Pinheiro",
    "latitude": -17.7398,
    "longitude": -46.1715
  },
  {
    "municipio": "2903904",
    "total_vinculos": "19",
    "municipio_nome": "Bom Jesus da Lapa",
    "latitude": -13.2506,
    "longitude": -43.4108
  },
  {
    "municipio": "4303558",
    "total_vinculos": "19",
    "municipio_nome": "Camargo",
    "latitude": -28.588,
    "longitude": -52.2003
  },
  {
    "municipio": "2910107",
    "total_vinculos": "19",
    "municipio_nome": "Dom Basílio",
    "latitude": -13.7565,
    "longitude": -41.7677
  },
  {
    "municipio": "3115409",
    "total_vinculos": "19",
    "municipio_nome": "Catas Altas da Noruega",
    "latitude": -20.6901,
    "longitude": -43.4939
  },
  {
    "municipio": "4105409",
    "total_vinculos": "19",
    "municipio_nome": "Chopinzinho",
    "latitude": -25.8515,
    "longitude": -52.5173
  },
  {
    "municipio": "3128204",
    "total_vinculos": "18",
    "municipio_nome": "Guaraciaba",
    "latitude": -20.5716,
    "longitude": -43.0094
  },
  {
    "municipio": "4105300",
    "total_vinculos": "18",
    "municipio_nome": "Céu Azul",
    "latitude": -25.1489,
    "longitude": -53.8415
  },
  {
    "municipio": "3170107",
    "total_vinculos": "18",
    "municipio_nome": "Uberaba",
    "latitude": -19.7472,
    "longitude": -47.9381
  },
  {
    "municipio": "4119608",
    "total_vinculos": "18",
    "municipio_nome": "Pitanga",
    "latitude": -24.7588,
    "longitude": -51.7596
  },
  {
    "municipio": "3508009",
    "total_vinculos": "18",
    "municipio_nome": "Buri",
    "latitude": -23.7977,
    "longitude": -48.5958
  },
  {
    "municipio": "3303401",
    "total_vinculos": "18",
    "municipio_nome": "Nova Friburgo",
    "latitude": -22.2932,
    "longitude": -42.5377
  },
  {
    "municipio": "4215075",
    "total_vinculos": "18",
    "municipio_nome": "Riqueza",
    "latitude": -27.0653,
    "longitude": -53.3265
  },
  {
    "municipio": "4217303",
    "total_vinculos": "18",
    "municipio_nome": "Saudades",
    "latitude": -26.9317,
    "longitude": -53.0021
  },
  {
    "municipio": "5107909",
    "total_vinculos": "18",
    "municipio_nome": "Sinop",
    "latitude": -11.8604,
    "longitude": -55.5091
  },
  {
    "municipio": "4208807",
    "total_vinculos": "18",
    "municipio_nome": "Jaguaruna",
    "latitude": -28.6146,
    "longitude": -49.0296
  },
  {
    "municipio": "5001508",
    "total_vinculos": "18",
    "municipio_nome": "Bandeirantes",
    "latitude": -19.9275,
    "longitude": -54.3585
  },
  {
    "municipio": "3508801",
    "total_vinculos": "17",
    "municipio_nome": "Cafelândia",
    "latitude": -21.8031,
    "longitude": -49.6092
  },
  {
    "municipio": "5215702",
    "total_vinculos": "17",
    "municipio_nome": "Palmeiras de Goiás",
    "latitude": -16.8044,
    "longitude": -49.924
  },
  {
    "municipio": "3155801",
    "total_vinculos": "17",
    "municipio_nome": "Rio Pomba",
    "latitude": -21.2712,
    "longitude": -43.1696
  },
  {
    "municipio": "4308706",
    "total_vinculos": "17",
    "municipio_nome": "Gaurama",
    "latitude": -27.5856,
    "longitude": -52.0915
  },
  {
    "municipio": "3550803",
    "total_vinculos": "17",
    "municipio_nome": "São Sebastião da Grama",
    "latitude": -21.7041,
    "longitude": -46.8208
  },
  {
    "municipio": "5005707",
    "total_vinculos": "17",
    "municipio_nome": "Naviraí",
    "latitude": -23.0618,
    "longitude": -54.1995
  },
  {
    "municipio": "3536307",
    "total_vinculos": "17",
    "municipio_nome": "Patrocínio Paulista",
    "latitude": -20.6384,
    "longitude": -47.2801
  },
  {
    "municipio": "4306007",
    "total_vinculos": "17",
    "municipio_nome": "Crissiumal",
    "latitude": -27.4999,
    "longitude": -54.0994
  },
  {
    "municipio": "4304804",
    "total_vinculos": "17",
    "municipio_nome": "Carlos Barbosa",
    "latitude": -29.2969,
    "longitude": -51.5028
  },
  {
    "municipio": "4308904",
    "total_vinculos": "17",
    "municipio_nome": "Getúlio Vargas",
    "latitude": -27.8911,
    "longitude": -52.2294
  },
  {
    "municipio": "3512407",
    "total_vinculos": "17",
    "municipio_nome": "Cordeirópolis",
    "latitude": -22.4778,
    "longitude": -47.4519
  },
  {
    "municipio": "4321329",
    "total_vinculos": "17",
    "municipio_nome": "Taquaruçu do Sul",
    "latitude": -27.4005,
    "longitude": -53.4702
  },
  {
    "municipio": "4323408",
    "total_vinculos": "16",
    "municipio_nome": "Vila Maria",
    "latitude": -28.5359,
    "longitude": -52.1486
  },
  {
    "municipio": "4320503",
    "total_vinculos": "16",
    "municipio_nome": "Sertão",
    "latitude": -27.9798,
    "longitude": -52.2588
  },
  {
    "municipio": "4310462",
    "total_vinculos": "16",
    "municipio_nome": "Ipiranga do Sul",
    "latitude": -27.9404,
    "longitude": -52.4271
  },
  {
    "municipio": "4306452",
    "total_vinculos": "16",
    "municipio_nome": "Dois Lajeados",
    "latitude": -28.983,
    "longitude": -51.8396
  },
  {
    "municipio": "4209508",
    "total_vinculos": "16",
    "municipio_nome": "Laurentino",
    "latitude": -27.2173,
    "longitude": -49.7331
  },
  {
    "municipio": "4312906",
    "total_vinculos": "16",
    "municipio_nome": "Nova Bassano",
    "latitude": -28.7291,
    "longitude": -51.7072
  },
  {
    "municipio": "3528106",
    "total_vinculos": "16",
    "municipio_nome": "Macaubal",
    "latitude": -20.8022,
    "longitude": -49.9687
  },
  {
    "municipio": "4128708",
    "total_vinculos": "16",
    "municipio_nome": "Vitorino",
    "latitude": -26.2683,
    "longitude": -52.7843
  },
  {
    "municipio": "3112604",
    "total_vinculos": "16",
    "municipio_nome": "Capinópolis",
    "latitude": -18.6862,
    "longitude": -49.5706
  },
  {
    "municipio": "3109501",
    "total_vinculos": "15",
    "municipio_nome": "Cabo Verde",
    "latitude": -21.4699,
    "longitude": -46.3919
  },
  {
    "municipio": "4313003",
    "total_vinculos": "15",
    "municipio_nome": "Nova Bréscia",
    "latitude": -29.2182,
    "longitude": -52.0319
  },
  {
    "municipio": "4302402",
    "total_vinculos": "15",
    "municipio_nome": "Bom Retiro do Sul",
    "latitude": -29.6071,
    "longitude": -51.9456
  },
  {
    "municipio": "3521804",
    "total_vinculos": "15",
    "municipio_nome": "Itaí",
    "latitude": -23.4213,
    "longitude": -49.092
  },
  {
    "municipio": "3112307",
    "total_vinculos": "15",
    "municipio_nome": "Capelinha",
    "latitude": -17.6888,
    "longitude": -42.5147
  },
  {
    "municipio": "4104428",
    "total_vinculos": "15",
    "municipio_nome": "Candói",
    "latitude": -25.5758,
    "longitude": -52.0409
  },
  {
    "municipio": "2309458",
    "total_vinculos": "15",
    "municipio_nome": "Ocara",
    "latitude": -4.48523,
    "longitude": -38.5933
  },
  {
    "municipio": "4322004",
    "total_vinculos": "15",
    "municipio_nome": "Triunfo",
    "latitude": -29.9291,
    "longitude": -51.7075
  },
  {
    "municipio": "3151503",
    "total_vinculos": "15",
    "municipio_nome": "Piumhi",
    "latitude": -20.4762,
    "longitude": -45.9589
  },
  {
    "municipio": "4115358",
    "total_vinculos": "14",
    "municipio_nome": "Maripá",
    "latitude": -24.42,
    "longitude": -53.8286
  },
  {
    "municipio": "4206801",
    "total_vinculos": "14",
    "municipio_nome": "Ibicaré",
    "latitude": -27.0881,
    "longitude": -51.3681
  },
  {
    "municipio": "4301701",
    "total_vinculos": "14",
    "municipio_nome": "Barão de Cotegipe",
    "latitude": -27.6208,
    "longitude": -52.3798
  },
  {
    "municipio": "4201273",
    "total_vinculos": "14",
    "municipio_nome": "Arabutã",
    "latitude": -27.1587,
    "longitude": -52.1423
  },
  {
    "municipio": "4312609",
    "total_vinculos": "14",
    "municipio_nome": "Muçum",
    "latitude": -29.163,
    "longitude": -51.8714
  },
  {
    "municipio": "3205200",
    "total_vinculos": "14",
    "municipio_nome": "Vila Velha",
    "latitude": -20.3417,
    "longitude": -40.2875
  },
  {
    "municipio": "4219853",
    "total_vinculos": "14",
    "municipio_nome": "Zortéa",
    "latitude": -27.4521,
    "longitude": -51.552
  },
  {
    "municipio": "2606606",
    "total_vinculos": "14",
    "municipio_nome": "Ibimirim",
    "latitude": -8.54026,
    "longitude": -37.7032
  },
  {
    "municipio": "4212908",
    "total_vinculos": "14",
    "municipio_nome": "Pinhalzinho",
    "latitude": -26.8495,
    "longitude": -52.9913
  },
  {
    "municipio": "1711902",
    "total_vinculos": "14",
    "municipio_nome": "Lagoa da Confusão",
    "latitude": -10.7906,
    "longitude": -49.6199
  },
  {
    "municipio": "3156700",
    "total_vinculos": "14",
    "municipio_nome": "Sabará",
    "latitude": -19.884,
    "longitude": -43.8263
  },
  {
    "municipio": "3102605",
    "total_vinculos": "14",
    "municipio_nome": "Andradas",
    "latitude": -22.0695,
    "longitude": -46.5724
  },
  {
    "municipio": "3205069",
    "total_vinculos": "14",
    "municipio_nome": "Venda Nova do Imigrante",
    "latitude": -20.327,
    "longitude": -41.1355
  },
  {
    "municipio": "4116059",
    "total_vinculos": "14",
    "municipio_nome": "Missal",
    "latitude": -25.0919,
    "longitude": -54.2477
  },
  {
    "municipio": "3530508",
    "total_vinculos": "14",
    "municipio_nome": "Mococa",
    "latitude": -21.4647,
    "longitude": -47.0024
  },
  {
    "municipio": "2613008",
    "total_vinculos": "14",
    "municipio_nome": "São Bento do Una",
    "latitude": -8.52637,
    "longitude": -36.4465
  },
  {
    "municipio": "3519055",
    "total_vinculos": "14",
    "municipio_nome": "Holambra",
    "latitude": -22.6405,
    "longitude": -47.0487
  },
  {
    "municipio": "3111705",
    "total_vinculos": "14",
    "municipio_nome": "Canaã",
    "latitude": -20.6869,
    "longitude": -42.6167
  },
  {
    "municipio": "4127858",
    "total_vinculos": "14",
    "municipio_nome": "Três Barras do Paraná",
    "latitude": -25.4185,
    "longitude": -53.1833
  },
  {
    "municipio": "4209607",
    "total_vinculos": "13",
    "municipio_nome": "Lauro Muller",
    "latitude": -28.3859,
    "longitude": -49.4035
  },
  {
    "municipio": "4116703",
    "total_vinculos": "13",
    "municipio_nome": "Nova Aurora",
    "latitude": -24.5289,
    "longitude": -53.2575
  },
  {
    "municipio": "4322350",
    "total_vinculos": "13",
    "municipio_nome": "União da Serra",
    "latitude": -28.7833,
    "longitude": -52.0238
  },
  {
    "municipio": "4204756",
    "total_vinculos": "13",
    "municipio_nome": "Cunhataí",
    "latitude": -26.9709,
    "longitude": -53.0895
  },
  {
    "municipio": "5002951",
    "total_vinculos": "13",
    "municipio_nome": "Chapadão do Sul",
    "latitude": -18.788,
    "longitude": -52.6263
  },
  {
    "municipio": "3528205",
    "total_vinculos": "13",
    "municipio_nome": "Macedônia",
    "latitude": -20.1444,
    "longitude": -50.1973
  },
  {
    "municipio": "4122503",
    "total_vinculos": "13",
    "municipio_nome": "Roncador",
    "latitude": -24.5958,
    "longitude": -52.2716
  },
  {
    "municipio": "4305801",
    "total_vinculos": "13",
    "municipio_nome": "Constantina",
    "latitude": -27.732,
    "longitude": -52.9938
  },
  {
    "municipio": "3155702",
    "total_vinculos": "13",
    "municipio_nome": "Rio Piracicaba",
    "latitude": -19.9284,
    "longitude": -43.1829
  },
  {
    "municipio": "4309605",
    "total_vinculos": "13",
    "municipio_nome": "Horizontina",
    "latitude": -27.6282,
    "longitude": -54.3053
  },
  {
    "municipio": "4205209",
    "total_vinculos": "13",
    "municipio_nome": "Erval Velho",
    "latitude": -27.2743,
    "longitude": -51.443
  },
  {
    "municipio": "4311809",
    "total_vinculos": "12",
    "municipio_nome": "Marau",
    "latitude": -28.4498,
    "longitude": -52.1986
  },
  {
    "municipio": "4125209",
    "total_vinculos": "12",
    "municipio_nome": "São Jorge d'Oeste",
    "latitude": -25.7085,
    "longitude": -52.9204
  },
  {
    "municipio": "4205456",
    "total_vinculos": "12",
    "municipio_nome": "Forquilhinha",
    "latitude": -28.7454,
    "longitude": -49.4785
  },
  {
    "municipio": "3201407",
    "total_vinculos": "12",
    "municipio_nome": "Castelo",
    "latitude": -20.6033,
    "longitude": -41.2031
  },
  {
    "municipio": "4321626",
    "total_vinculos": "12",
    "municipio_nome": "Travesseiro",
    "latitude": -29.2977,
    "longitude": -52.0532
  },
  {
    "municipio": "3538204",
    "total_vinculos": "12",
    "municipio_nome": "Pinhalzinho",
    "latitude": -22.7811,
    "longitude": -46.5897
  },
  {
    "municipio": "4205175",
    "total_vinculos": "12",
    "municipio_nome": "Entre Rios",
    "latitude": -26.7225,
    "longitude": -52.5585
  },
  {
    "municipio": "4217204",
    "total_vinculos": "12",
    "municipio_nome": "São Miguel do Oeste",
    "latitude": -26.7242,
    "longitude": -53.5163
  },
  {
    "municipio": "3509502",
    "total_vinculos": "12",
    "municipio_nome": "Campinas",
    "latitude": -22.9053,
    "longitude": -47.0659
  },
  {
    "municipio": "4306734",
    "total_vinculos": "12",
    "municipio_nome": "Doutor Maurício Cardoso",
    "latitude": -27.5103,
    "longitude": -54.3577
  },
  {
    "municipio": "4314308",
    "total_vinculos": "12",
    "municipio_nome": "Pejuçara",
    "latitude": -28.4283,
    "longitude": -53.6579
  },
  {
    "municipio": "5000609",
    "total_vinculos": "12",
    "municipio_nome": "Amambai",
    "latitude": -23.1058,
    "longitude": -55.2253
  },
  {
    "municipio": "4107546",
    "total_vinculos": "12",
    "municipio_nome": "Espigão Alto do Iguaçu",
    "latitude": -25.4216,
    "longitude": -52.8348
  },
  {
    "municipio": "3138203",
    "total_vinculos": "12",
    "municipio_nome": "Lavras",
    "latitude": -21.248,
    "longitude": -45.0009
  },
  {
    "municipio": "4101002",
    "total_vinculos": "12",
    "municipio_nome": "Ampére",
    "latitude": -25.9168,
    "longitude": -53.4686
  },
  {
    "municipio": "3161809",
    "total_vinculos": "11",
    "municipio_nome": "São Gonçalo do Pará",
    "latitude": -19.9822,
    "longitude": -44.8593
  },
  {
    "municipio": "5208004",
    "total_vinculos": "11",
    "municipio_nome": "Formosa",
    "latitude": -15.54,
    "longitude": -47.337
  },
  {
    "municipio": "3528403",
    "total_vinculos": "11",
    "municipio_nome": "Mairinque",
    "latitude": -23.5398,
    "longitude": -47.185
  },
  {
    "municipio": "2708204",
    "total_vinculos": "11",
    "municipio_nome": "São Brás",
    "latitude": -10.1141,
    "longitude": -36.8522
  },
  {
    "municipio": "2306553",
    "total_vinculos": "11",
    "municipio_nome": "Itarema",
    "latitude": -2.9248,
    "longitude": -39.9167
  },
  {
    "municipio": "3126703",
    "total_vinculos": "11",
    "municipio_nome": "Francisco Sá",
    "latitude": -16.4827,
    "longitude": -43.4896
  },
  {
    "municipio": "3532504",
    "total_vinculos": "11",
    "municipio_nome": "Neves Paulista",
    "latitude": -20.843,
    "longitude": -49.6358
  },
  {
    "municipio": "4118600",
    "total_vinculos": "11",
    "municipio_nome": "Paula Freitas",
    "latitude": -26.2105,
    "longitude": -50.931
  },
  {
    "municipio": "4317251",
    "total_vinculos": "11",
    "municipio_nome": "Santa Tereza",
    "latitude": -29.1655,
    "longitude": -51.7351
  },
  {
    "municipio": "4211405",
    "total_vinculos": "11",
    "municipio_nome": "Nova Erechim",
    "latitude": -26.8982,
    "longitude": -52.9066
  },
  {
    "municipio": "4319711",
    "total_vinculos": "11",
    "municipio_nome": "São Valentim do Sul",
    "latitude": -29.0451,
    "longitude": -51.7684
  },
  {
    "municipio": "5200100",
    "total_vinculos": "11",
    "municipio_nome": "Abadiânia",
    "latitude": -16.197,
    "longitude": -48.7057
  },
  {
    "municipio": "4200051",
    "total_vinculos": "11",
    "municipio_nome": "Abdon Batista",
    "latitude": -27.6126,
    "longitude": -51.0233
  },
  {
    "municipio": "3300308",
    "total_vinculos": "11",
    "municipio_nome": "Barra do Piraí",
    "latitude": -22.4715,
    "longitude": -43.8269
  },
  {
    "municipio": "2902708",
    "total_vinculos": "11",
    "municipio_nome": "Barra",
    "latitude": -11.0859,
    "longitude": -43.1459
  },
  {
    "municipio": "2112209",
    "total_vinculos": "10",
    "municipio_nome": "Timon",
    "latitude": -5.09769,
    "longitude": -42.8329
  },
  {
    "municipio": "3149705",
    "total_vinculos": "10",
    "municipio_nome": "Perdigão",
    "latitude": -19.9411,
    "longitude": -45.078
  },
  {
    "municipio": "5210109",
    "total_vinculos": "10",
    "municipio_nome": "Ipameri",
    "latitude": -17.7215,
    "longitude": -48.1581
  },
  {
    "municipio": "4301925",
    "total_vinculos": "10",
    "municipio_nome": "Barra do Rio Azul",
    "latitude": -27.4069,
    "longitude": -52.4084
  },
  {
    "municipio": "4200804",
    "total_vinculos": "10",
    "municipio_nome": "Anchieta",
    "latitude": -26.5382,
    "longitude": -53.3319
  },
  {
    "municipio": "2926103",
    "total_vinculos": "10",
    "municipio_nome": "Retirolândia",
    "latitude": -11.4832,
    "longitude": -39.4234
  },
  {
    "municipio": "4114302",
    "total_vinculos": "10",
    "municipio_nome": "Mandirituba",
    "latitude": -25.777,
    "longitude": -49.3282
  },
  {
    "municipio": "4207700",
    "total_vinculos": "10",
    "municipio_nome": "Ipumirim",
    "latitude": -27.0772,
    "longitude": -52.1289
  },
  {
    "municipio": "3306206",
    "total_vinculos": "10",
    "municipio_nome": "Vassouras",
    "latitude": -22.4059,
    "longitude": -43.6686
  },
  {
    "municipio": "4204707",
    "total_vinculos": "10",
    "municipio_nome": "Cunha Porã",
    "latitude": -26.895,
    "longitude": -53.1662
  },
  {
    "municipio": "5205513",
    "total_vinculos": "10",
    "municipio_nome": "Cocalzinho de Goiás",
    "latitude": -15.7914,
    "longitude": -48.7747
  },
  {
    "municipio": "4314753",
    "total_vinculos": "10",
    "municipio_nome": "Poço das Antas",
    "latitude": -29.4481,
    "longitude": -51.6719
  },
  {
    "municipio": "2908200",
    "total_vinculos": "10",
    "municipio_nome": "Conceição da Feira",
    "latitude": -12.5078,
    "longitude": -38.9978
  },
  {
    "municipio": "3555000",
    "total_vinculos": "10",
    "municipio_nome": "Tupã",
    "latitude": -21.9335,
    "longitude": -50.5191
  },
  {
    "municipio": "4123006",
    "total_vinculos": "10",
    "municipio_nome": "Salto do Lontra",
    "latitude": -25.7813,
    "longitude": -53.3135
  },
  {
    "municipio": "4320404",
    "total_vinculos": "10",
    "municipio_nome": "Serafina Corrêa",
    "latitude": -28.7126,
    "longitude": -51.9352
  },
  {
    "municipio": "3503406",
    "total_vinculos": "10",
    "municipio_nome": "Arealva",
    "latitude": -22.031,
    "longitude": -48.9135
  },
  {
    "municipio": "3162203",
    "total_vinculos": "10",
    "municipio_nome": "São João Batista do Glória",
    "latitude": -20.635,
    "longitude": -46.508
  },
  {
    "municipio": "4119301",
    "total_vinculos": "9",
    "municipio_nome": "Pinhão",
    "latitude": -25.6944,
    "longitude": -51.6536
  },
  {
    "municipio": "5107800",
    "total_vinculos": "9",
    "municipio_nome": "Santo Antônio do Leverger",
    "latitude": -15.8632,
    "longitude": -56.0788
  },
  {
    "municipio": "3152709",
    "total_vinculos": "9",
    "municipio_nome": "Prados",
    "latitude": -21.0597,
    "longitude": -44.0778
  },
  {
    "municipio": "3554953",
    "total_vinculos": "9",
    "municipio_nome": "Tuiuti",
    "latitude": -22.8193,
    "longitude": -46.6937
  },
  {
    "municipio": "4110508",
    "total_vinculos": "9",
    "municipio_nome": "Ipiranga",
    "latitude": -25.0238,
    "longitude": -50.5794
  },
  {
    "municipio": "4118709",
    "total_vinculos": "9",
    "municipio_nome": "Paulo Frontin",
    "latitude": -26.0466,
    "longitude": -50.8304
  },
  {
    "municipio": "4303707",
    "total_vinculos": "9",
    "municipio_nome": "Campina das Missões",
    "latitude": -27.9888,
    "longitude": -54.8416
  },
  {
    "municipio": "3522406",
    "total_vinculos": "9",
    "municipio_nome": "Itapeva",
    "latitude": -23.9788,
    "longitude": -48.8764
  },
  {
    "municipio": "4217105",
    "total_vinculos": "9",
    "municipio_nome": "São Martinho",
    "latitude": -28.1609,
    "longitude": -48.9867
  },
  {
    "municipio": "4216701",
    "total_vinculos": "9",
    "municipio_nome": "São José do Cedro",
    "latitude": -26.4561,
    "longitude": -53.4955
  },
  {
    "municipio": "4306072",
    "total_vinculos": "9",
    "municipio_nome": "Cristal do Sul",
    "latitude": -27.452,
    "longitude": -53.2422
  },
  {
    "municipio": "4323606",
    "total_vinculos": "9",
    "municipio_nome": "Vista Alegre do Prata",
    "latitude": -28.8052,
    "longitude": -51.7947
  },
  {
    "municipio": "4202537",
    "total_vinculos": "9",
    "municipio_nome": "Bom Jesus",
    "latitude": -26.7326,
    "longitude": -52.3919
  },
  {
    "municipio": "4120358",
    "total_vinculos": "9",
    "municipio_nome": "Pranchita",
    "latitude": -26.0209,
    "longitude": -53.7397
  },
  {
    "municipio": "4219408",
    "total_vinculos": "9",
    "municipio_nome": "Witmarsum",
    "latitude": -26.9275,
    "longitude": -49.7947
  },
  {
    "municipio": "3143401",
    "total_vinculos": "9",
    "municipio_nome": "Monte Sião",
    "latitude": -22.4335,
    "longitude": -46.573
  },
  {
    "municipio": "4204350",
    "total_vinculos": "9",
    "municipio_nome": "Cordilheira Alta",
    "latitude": -26.9844,
    "longitude": -52.6056
  },
  {
    "municipio": "2908309",
    "total_vinculos": "9",
    "municipio_nome": "Conceição do Almeida",
    "latitude": -12.7836,
    "longitude": -39.1715
  },
  {
    "municipio": "4205357",
    "total_vinculos": "9",
    "municipio_nome": "Flor do Sertão",
    "latitude": -26.7811,
    "longitude": -53.3505
  },
  {
    "municipio": "4211801",
    "total_vinculos": "9",
    "municipio_nome": "Ouro",
    "latitude": -27.3379,
    "longitude": -51.6194
  },
  {
    "municipio": "3139706",
    "total_vinculos": "9",
    "municipio_nome": "Maravilhas",
    "latitude": -19.5076,
    "longitude": -44.6779
  },
  {
    "municipio": "4217550",
    "total_vinculos": "9",
    "municipio_nome": "Serra Alta",
    "latitude": -26.7229,
    "longitude": -53.0409
  },
  {
    "municipio": "3132206",
    "total_vinculos": "9",
    "municipio_nome": "Itaguara",
    "latitude": -20.3947,
    "longitude": -44.4875
  },
  {
    "municipio": "4300901",
    "total_vinculos": "9",
    "municipio_nome": "Aratiba",
    "latitude": -27.3978,
    "longitude": -52.2975
  },
  {
    "municipio": "4206751",
    "total_vinculos": "9",
    "municipio_nome": "Ibiam",
    "latitude": -27.1847,
    "longitude": -51.2352
  },
  {
    "municipio": "2211001",
    "total_vinculos": "9",
    "municipio_nome": "Teresina",
    "latitude": -5.09194,
    "longitude": -42.8034
  },
  {
    "municipio": "5108402",
    "total_vinculos": "8",
    "municipio_nome": "Várzea Grande",
    "latitude": -15.6458,
    "longitude": -56.1322
  },
  {
    "municipio": "4127957",
    "total_vinculos": "8",
    "municipio_nome": "Tupãssi",
    "latitude": -24.5879,
    "longitude": -53.5105
  },
  {
    "municipio": "3203106",
    "total_vinculos": "8",
    "municipio_nome": "Jerônimo Monteiro",
    "latitude": -20.7994,
    "longitude": -41.3948
  },
  {
    "municipio": "1707306",
    "total_vinculos": "8",
    "municipio_nome": "Dueré",
    "latitude": -11.3416,
    "longitude": -49.2716
  },
  {
    "municipio": "3144409",
    "total_vinculos": "8",
    "municipio_nome": "Natércia",
    "latitude": -22.1158,
    "longitude": -45.5123
  },
  {
    "municipio": "3161700",
    "total_vinculos": "8",
    "municipio_nome": "São Gonçalo do Abaeté",
    "latitude": -18.3315,
    "longitude": -45.8265
  },
  {
    "municipio": "3128501",
    "total_vinculos": "8",
    "municipio_nome": "Guarará",
    "latitude": -21.7304,
    "longitude": -43.0334
  },
  {
    "municipio": "4215604",
    "total_vinculos": "8",
    "municipio_nome": "Santa Rosa de Lima",
    "latitude": -28.0331,
    "longitude": -49.133
  },
  {
    "municipio": "5200134",
    "total_vinculos": "8",
    "municipio_nome": "Acreúna",
    "latitude": -17.396,
    "longitude": -50.3749
  },
  {
    "municipio": "4311791",
    "total_vinculos": "8",
    "municipio_nome": "Maratá",
    "latitude": -29.5457,
    "longitude": -51.5573
  },
  {
    "municipio": "2928703",
    "total_vinculos": "8",
    "municipio_nome": "Santo Antônio de Jesus",
    "latitude": -12.9614,
    "longitude": -39.2584
  },
  {
    "municipio": "3111804",
    "total_vinculos": "8",
    "municipio_nome": "Canápolis",
    "latitude": -18.7212,
    "longitude": -49.2035
  },
  {
    "municipio": "4322608",
    "total_vinculos": "8",
    "municipio_nome": "Venâncio Aires",
    "latitude": -29.6143,
    "longitude": -52.1932
  },
  {
    "municipio": "5002308",
    "total_vinculos": "8",
    "municipio_nome": "Brasilândia",
    "latitude": -21.2544,
    "longitude": -52.0365
  },
  {
    "municipio": "3119807",
    "total_vinculos": "8",
    "municipio_nome": "Córrego Danta",
    "latitude": -19.8198,
    "longitude": -45.9032
  },
  {
    "municipio": "4200754",
    "total_vinculos": "8",
    "municipio_nome": "Alto Bela Vista",
    "latitude": -27.4333,
    "longitude": -51.9044
  },
  {
    "municipio": "3145455",
    "total_vinculos": "8",
    "municipio_nome": "Olhos d'Água",
    "latitude": -17.3982,
    "longitude": -43.5719
  },
  {
    "municipio": "4122800",
    "total_vinculos": "8",
    "municipio_nome": "Salgado Filho",
    "latitude": -26.1777,
    "longitude": -53.3631
  },
  {
    "municipio": "4206603",
    "total_vinculos": "8",
    "municipio_nome": "Guarujá do Sul",
    "latitude": -26.3858,
    "longitude": -53.5296
  },
  {
    "municipio": "4102703",
    "total_vinculos": "8",
    "municipio_nome": "Barra do Jacaré",
    "latitude": -23.116,
    "longitude": -50.1842
  },
  {
    "municipio": "5212907",
    "total_vinculos": "8",
    "municipio_nome": "Marzagão",
    "latitude": -17.983,
    "longitude": -48.6415
  },
  {
    "municipio": "4313805",
    "total_vinculos": "8",
    "municipio_nome": "Palmitinho",
    "latitude": -27.3596,
    "longitude": -53.558
  },
  {
    "municipio": "3104502",
    "total_vinculos": "8",
    "municipio_nome": "Arinos",
    "latitude": -15.9187,
    "longitude": -46.1043
  },
  {
    "municipio": "4210902",
    "total_vinculos": "8",
    "municipio_nome": "Modelo",
    "latitude": -26.7729,
    "longitude": -53.04
  },
  {
    "municipio": "3542107",
    "total_vinculos": "8",
    "municipio_nome": "Rafard",
    "latitude": -23.0105,
    "longitude": -47.5318
  },
  {
    "municipio": "4117701",
    "total_vinculos": "8",
    "municipio_nome": "Palmeira",
    "latitude": -25.4257,
    "longitude": -50.007
  },
  {
    "municipio": "4212270",
    "total_vinculos": "7",
    "municipio_nome": "Passos Maia",
    "latitude": -26.7829,
    "longitude": -52.0568
  },
  {
    "municipio": "4210704",
    "total_vinculos": "7",
    "municipio_nome": "Matos Costa",
    "latitude": -26.4709,
    "longitude": -51.1501
  },
  {
    "municipio": "3100401",
    "total_vinculos": "7",
    "municipio_nome": "Acaiaca",
    "latitude": -20.359,
    "longitude": -43.1439
  },
  {
    "municipio": "2301208",
    "total_vinculos": "7",
    "municipio_nome": "Aracoiaba",
    "latitude": -4.36872,
    "longitude": -38.8125
  },
  {
    "municipio": "5103601",
    "total_vinculos": "7",
    "municipio_nome": "Dom Aquino",
    "latitude": -15.8099,
    "longitude": -54.9223
  },
  {
    "municipio": "4113452",
    "total_vinculos": "7",
    "municipio_nome": "Lindoeste",
    "latitude": -25.2596,
    "longitude": -53.5733
  },
  {
    "municipio": "2613909",
    "total_vinculos": "7",
    "municipio_nome": "Serra Talhada",
    "latitude": -7.98178,
    "longitude": -38.289
  },
  {
    "municipio": "5103403",
    "total_vinculos": "7",
    "municipio_nome": "Cuiabá",
    "latitude": -15.601,
    "longitude": -56.0974
  },
  {
    "municipio": "5205059",
    "total_vinculos": "7",
    "municipio_nome": "Castelândia",
    "latitude": -18.0921,
    "longitude": -50.203
  },
  {
    "municipio": "4216107",
    "total_vinculos": "7",
    "municipio_nome": "São Domingos",
    "latitude": -26.5548,
    "longitude": -52.5313
  },
  {
    "municipio": "3531308",
    "total_vinculos": "7",
    "municipio_nome": "Monte Alto",
    "latitude": -21.2655,
    "longitude": -48.4971
  },
  {
    "municipio": "3511102",
    "total_vinculos": "7",
    "municipio_nome": "Catanduva",
    "latitude": -21.1314,
    "longitude": -48.977
  },
  {
    "municipio": "2804607",
    "total_vinculos": "7",
    "municipio_nome": "Nossa Senhora das Dores",
    "latitude": -10.4854,
    "longitude": -37.1963
  },
  {
    "municipio": "3547908",
    "total_vinculos": "7",
    "municipio_nome": "Santo Antônio da Alegria",
    "latitude": -21.0864,
    "longitude": -47.1464
  },
  {
    "municipio": "3141801",
    "total_vinculos": "7",
    "municipio_nome": "Minas Novas",
    "latitude": -17.2156,
    "longitude": -42.5884
  },
  {
    "municipio": "4316758",
    "total_vinculos": "7",
    "municipio_nome": "Santa Clara do Sul",
    "latitude": -29.4747,
    "longitude": -52.0843
  },
  {
    "municipio": "4312153",
    "total_vinculos": "7",
    "municipio_nome": "Mato Leitão",
    "latitude": -29.5285,
    "longitude": -52.1278
  },
  {
    "municipio": "4313607",
    "total_vinculos": "7",
    "municipio_nome": "Paim Filho",
    "latitude": -27.7075,
    "longitude": -51.763
  },
  {
    "municipio": "4320909",
    "total_vinculos": "7",
    "municipio_nome": "Tapejara",
    "latitude": -28.0652,
    "longitude": -52.0097
  },
  {
    "municipio": "1200252",
    "total_vinculos": "7",
    "municipio_nome": "Epitaciolândia",
    "latitude": -11.0188,
    "longitude": -68.7341
  },
  {
    "municipio": "5002605",
    "total_vinculos": "7",
    "municipio_nome": "Camapuã",
    "latitude": -19.5347,
    "longitude": -54.0431
  },
  {
    "municipio": "5003801",
    "total_vinculos": "7",
    "municipio_nome": "Fátima do Sul",
    "latitude": -22.3789,
    "longitude": -54.5131
  },
  {
    "municipio": "3507100",
    "total_vinculos": "7",
    "municipio_nome": "Bom Jesus dos Perdões",
    "latitude": -23.1356,
    "longitude": -46.4675
  },
  {
    "municipio": "4122404",
    "total_vinculos": "7",
    "municipio_nome": "Rolândia",
    "latitude": -23.3101,
    "longitude": -51.3659
  },
  {
    "municipio": "4204004",
    "total_vinculos": "7",
    "municipio_nome": "Catanduvas",
    "latitude": -27.069,
    "longitude": -51.6602
  },
  {
    "municipio": "4321634",
    "total_vinculos": "7",
    "municipio_nome": "Três Arroios",
    "latitude": -27.5003,
    "longitude": -52.1448
  },
  {
    "municipio": "3524303",
    "total_vinculos": "7",
    "municipio_nome": "Jaboticabal",
    "latitude": -21.252,
    "longitude": -48.3252
  },
  {
    "municipio": "4114500",
    "total_vinculos": "7",
    "municipio_nome": "Manoel Ribas",
    "latitude": -24.5144,
    "longitude": -51.6658
  },
  {
    "municipio": "2406106",
    "total_vinculos": "7",
    "municipio_nome": "Jucurutu",
    "latitude": -6.0306,
    "longitude": -37.009
  },
  {
    "municipio": "4125456",
    "total_vinculos": "7",
    "municipio_nome": "São José das Palmeiras",
    "latitude": -24.8369,
    "longitude": -54.0572
  },
  {
    "municipio": "3546405",
    "total_vinculos": "6",
    "municipio_nome": "Santa Cruz do Rio Pardo",
    "latitude": -22.8988,
    "longitude": -49.6354
  },
  {
    "municipio": "4126652",
    "total_vinculos": "6",
    "municipio_nome": "Sulina",
    "latitude": -25.7066,
    "longitude": -52.7299
  },
  {
    "municipio": "3521705",
    "total_vinculos": "6",
    "municipio_nome": "Itaberá",
    "latitude": -23.8638,
    "longitude": -49.14
  },
  {
    "municipio": "3144706",
    "total_vinculos": "6",
    "municipio_nome": "Nova Era",
    "latitude": -19.7577,
    "longitude": -43.0333
  },
  {
    "municipio": "3531209",
    "total_vinculos": "6",
    "municipio_nome": "Monte Alegre do Sul",
    "latitude": -22.6817,
    "longitude": -46.681
  },
  {
    "municipio": "5104807",
    "total_vinculos": "6",
    "municipio_nome": "Jaciara",
    "latitude": -15.9548,
    "longitude": -54.9733
  },
  {
    "municipio": "1502707",
    "total_vinculos": "6",
    "municipio_nome": "Conceição do Araguaia",
    "latitude": -8.26136,
    "longitude": -49.2689
  },
  {
    "municipio": "4213906",
    "total_vinculos": "6",
    "municipio_nome": "Presidente Castello Branco",
    "latitude": -27.2218,
    "longitude": -51.8089
  },
  {
    "municipio": "2922250",
    "total_vinculos": "6",
    "municipio_nome": "Muquém de São Francisco",
    "latitude": -12.065,
    "longitude": -43.5497
  },
  {
    "municipio": "3512209",
    "total_vinculos": "6",
    "municipio_nome": "Conchal",
    "latitude": -22.3375,
    "longitude": -47.1729
  },
  {
    "municipio": "3526803",
    "total_vinculos": "6",
    "municipio_nome": "Lençóis Paulista",
    "latitude": -22.6027,
    "longitude": -48.8037
  },
  {
    "municipio": "4304002",
    "total_vinculos": "6",
    "municipio_nome": "Campo Novo",
    "latitude": -27.6792,
    "longitude": -53.8052
  },
  {
    "municipio": "3520509",
    "total_vinculos": "6",
    "municipio_nome": "Indaiatuba",
    "latitude": -23.0816,
    "longitude": -47.2101
  },
  {
    "municipio": "4219176",
    "total_vinculos": "6",
    "municipio_nome": "Vargem Bonita",
    "latitude": -27.0055,
    "longitude": -51.7402
  },
  {
    "municipio": "4121505",
    "total_vinculos": "6",
    "municipio_nome": "Rebouças",
    "latitude": -25.6232,
    "longitude": -50.6877
  },
  {
    "municipio": "4318903",
    "total_vinculos": "6",
    "municipio_nome": "São Luiz Gonzaga",
    "latitude": -28.412,
    "longitude": -54.9559
  },
  {
    "municipio": "4207684",
    "total_vinculos": "6",
    "municipio_nome": "Ipuaçu",
    "latitude": -26.635,
    "longitude": -52.4556
  },
  {
    "municipio": "3126406",
    "total_vinculos": "6",
    "municipio_nome": "Fortuna de Minas",
    "latitude": -19.5578,
    "longitude": -44.4472
  },
  {
    "municipio": "3555109",
    "total_vinculos": "6",
    "municipio_nome": "Tupi Paulista",
    "latitude": -21.3825,
    "longitude": -51.575
  },
  {
    "municipio": "5220009",
    "total_vinculos": "6",
    "municipio_nome": "São João d'Aliança",
    "latitude": -14.7048,
    "longitude": -47.5228
  },
  {
    "municipio": "4318440",
    "total_vinculos": "6",
    "municipio_nome": "São Jorge",
    "latitude": -28.4984,
    "longitude": -51.7064
  },
  {
    "municipio": "4212700",
    "total_vinculos": "6",
    "municipio_nome": "Petrolândia",
    "latitude": -27.5346,
    "longitude": -49.6937
  },
  {
    "municipio": "4200507",
    "total_vinculos": "6",
    "municipio_nome": "Águas de Chapecó",
    "latitude": -27.0754,
    "longitude": -52.9808
  },
  {
    "municipio": "4309407",
    "total_vinculos": "6",
    "municipio_nome": "Guaporé",
    "latitude": -28.8399,
    "longitude": -51.8895
  },
  {
    "municipio": "2616407",
    "total_vinculos": "6",
    "municipio_nome": "Vitória de Santo Antão",
    "latitude": -8.12819,
    "longitude": -35.2976
  },
  {
    "municipio": "3200607",
    "total_vinculos": "6",
    "municipio_nome": "Aracruz",
    "latitude": -19.82,
    "longitude": -40.2764
  },
  {
    "municipio": "3114402",
    "total_vinculos": "6",
    "municipio_nome": "Carmo do Rio Claro",
    "latitude": -20.9736,
    "longitude": -46.1149
  },
  {
    "municipio": "4213203",
    "total_vinculos": "6",
    "municipio_nome": "Pomerode",
    "latitude": -26.7384,
    "longitude": -49.1785
  },
  {
    "municipio": "3120201",
    "total_vinculos": "6",
    "municipio_nome": "Cristais",
    "latitude": -20.8733,
    "longitude": -45.5167
  },
  {
    "municipio": "3139607",
    "total_vinculos": "6",
    "municipio_nome": "Mantena",
    "latitude": -18.7761,
    "longitude": -40.9874
  },
  {
    "municipio": "4122008",
    "total_vinculos": "5",
    "municipio_nome": "Rio Azul",
    "latitude": -25.7306,
    "longitude": -50.7985
  },
  {
    "municipio": "4210100",
    "total_vinculos": "5",
    "municipio_nome": "Mafra",
    "latitude": -26.1159,
    "longitude": -49.8086
  },
  {
    "municipio": "4321808",
    "total_vinculos": "5",
    "municipio_nome": "Três de Maio",
    "latitude": -27.78,
    "longitude": -54.2357
  },
  {
    "municipio": "4127007",
    "total_vinculos": "5",
    "municipio_nome": "Teixeira Soares",
    "latitude": -25.3701,
    "longitude": -50.4571
  },
  {
    "municipio": "2103604",
    "total_vinculos": "5",
    "municipio_nome": "Coroatá",
    "latitude": -4.13442,
    "longitude": -44.1244
  },
  {
    "municipio": "4215679",
    "total_vinculos": "5",
    "municipio_nome": "Santa Terezinha",
    "latitude": -26.7813,
    "longitude": -50.009
  },
  {
    "municipio": "4211603",
    "total_vinculos": "5",
    "municipio_nome": "Nova Veneza",
    "latitude": -28.6338,
    "longitude": -49.5055
  },
  {
    "municipio": "4305587",
    "total_vinculos": "5",
    "municipio_nome": "Colinas",
    "latitude": -29.3948,
    "longitude": -51.8556
  },
  {
    "municipio": "4318424",
    "total_vinculos": "5",
    "municipio_nome": "São João da Urtiga",
    "latitude": -27.8195,
    "longitude": -51.8257
  },
  {
    "municipio": "4124400",
    "total_vinculos": "5",
    "municipio_nome": "Santo Antônio do Sudoeste",
    "latitude": -26.0737,
    "longitude": -53.7251
  },
  {
    "municipio": "2925758",
    "total_vinculos": "5",
    "municipio_nome": "Presidente Tancredo Neves",
    "latitude": -13.4471,
    "longitude": -39.4203
  },
  {
    "municipio": "1100205",
    "total_vinculos": "5",
    "municipio_nome": "Porto Velho",
    "latitude": -8.76077,
    "longitude": -63.8999
  },
  {
    "municipio": "3204609",
    "total_vinculos": "5",
    "municipio_nome": "Santa Teresa",
    "latitude": -19.9363,
    "longitude": -40.5979
  },
  {
    "municipio": "4310603",
    "total_vinculos": "5",
    "municipio_nome": "Itaqui",
    "latitude": -29.1311,
    "longitude": -56.5515
  },
  {
    "municipio": "2210409",
    "total_vinculos": "5",
    "municipio_nome": "São Miguel do Tapuio",
    "latitude": -5.49729,
    "longitude": -41.3165
  },
  {
    "municipio": "3162955",
    "total_vinculos": "5",
    "municipio_nome": "São José da Lapa",
    "latitude": -19.6971,
    "longitude": -43.9586
  },
  {
    "municipio": "3523800",
    "total_vinculos": "5",
    "municipio_nome": "Itobi",
    "latitude": -21.7309,
    "longitude": -46.9743
  },
  {
    "municipio": "3503307",
    "total_vinculos": "5",
    "municipio_nome": "Araras",
    "latitude": -22.3572,
    "longitude": -47.3842
  },
  {
    "municipio": "5002407",
    "total_vinculos": "5",
    "municipio_nome": "Caarapó",
    "latitude": -22.6368,
    "longitude": -54.8209
  },
  {
    "municipio": "4320453",
    "total_vinculos": "5",
    "municipio_nome": "Sério",
    "latitude": -29.3904,
    "longitude": -52.2685
  },
  {
    "municipio": "3107109",
    "total_vinculos": "5",
    "municipio_nome": "Boa Esperança",
    "latitude": -21.0927,
    "longitude": -45.5612
  },
  {
    "municipio": "3147006",
    "total_vinculos": "5",
    "municipio_nome": "Paracatu",
    "latitude": -17.2252,
    "longitude": -46.8711
  },
  {
    "municipio": "4123808",
    "total_vinculos": "5",
    "municipio_nome": "Santa Izabel do Oeste",
    "latitude": -25.8217,
    "longitude": -53.4801
  },
  {
    "municipio": "1506500",
    "total_vinculos": "5",
    "municipio_nome": "Santa Izabel do Pará",
    "latitude": -1.29686,
    "longitude": -48.1606
  },
  {
    "municipio": "4127106",
    "total_vinculos": "5",
    "municipio_nome": "Telêmaco Borba",
    "latitude": -24.3245,
    "longitude": -50.6176
  },
  {
    "municipio": "4320602",
    "total_vinculos": "5",
    "municipio_nome": "Severiano de Almeida",
    "latitude": -27.4362,
    "longitude": -52.1217
  },
  {
    "municipio": "4217808",
    "total_vinculos": "5",
    "municipio_nome": "Taió",
    "latitude": -27.121,
    "longitude": -49.9942
  },
  {
    "municipio": "3541059",
    "total_vinculos": "5",
    "municipio_nome": "Pratânia",
    "latitude": -22.8112,
    "longitude": -48.6636
  },
  {
    "municipio": "3201704",
    "total_vinculos": "5",
    "municipio_nome": "Conceição do Castelo",
    "latitude": -20.3639,
    "longitude": -41.2417
  },
  {
    "municipio": "3204559",
    "total_vinculos": "5",
    "municipio_nome": "Santa Maria de Jetibá",
    "latitude": -20.0253,
    "longitude": -40.7439
  },
  {
    "municipio": "3525904",
    "total_vinculos": "5",
    "municipio_nome": "Jundiaí",
    "latitude": -23.1852,
    "longitude": -46.8974
  },
  {
    "municipio": "4219002",
    "total_vinculos": "5",
    "municipio_nome": "Urussanga",
    "latitude": -28.518,
    "longitude": -49.3238
  },
  {
    "municipio": "1718204",
    "total_vinculos": "5",
    "municipio_nome": "Porto Nacional",
    "latitude": -10.7027,
    "longitude": -48.408
  },
  {
    "municipio": "2604106",
    "total_vinculos": "4",
    "municipio_nome": "Caruaru",
    "latitude": -8.28455,
    "longitude": -35.9699
  },
  {
    "municipio": "5210000",
    "total_vinculos": "4",
    "municipio_nome": "Inhumas",
    "latitude": -16.3611,
    "longitude": -49.5001
  },
  {
    "municipio": "4214805",
    "total_vinculos": "4",
    "municipio_nome": "Rio do Sul",
    "latitude": -27.2156,
    "longitude": -49.643
  },
  {
    "municipio": "4202859",
    "total_vinculos": "4",
    "municipio_nome": "Braço do Trombudo",
    "latitude": -27.3586,
    "longitude": -49.8821
  },
  {
    "municipio": "3533007",
    "total_vinculos": "4",
    "municipio_nome": "Nova Granada",
    "latitude": -20.5321,
    "longitude": -49.3123
  },
  {
    "municipio": "1504703",
    "total_vinculos": "4",
    "municipio_nome": "Moju",
    "latitude": -1.88993,
    "longitude": -48.7668
  },
  {
    "municipio": "3201902",
    "total_vinculos": "4",
    "municipio_nome": "Domingos Martins",
    "latitude": -20.3603,
    "longitude": -40.6594
  },
  {
    "municipio": "2313609",
    "total_vinculos": "4",
    "municipio_nome": "Ubajara",
    "latitude": -3.85448,
    "longitude": -40.9204
  },
  {
    "municipio": "2610905",
    "total_vinculos": "4",
    "municipio_nome": "Pesqueira",
    "latitude": -8.35797,
    "longitude": -36.6978
  },
  {
    "municipio": "2801009",
    "total_vinculos": "4",
    "municipio_nome": "Campo do Brito",
    "latitude": -10.7392,
    "longitude": -37.4954
  },
  {
    "municipio": "3552502",
    "total_vinculos": "4",
    "municipio_nome": "Suzano",
    "latitude": -23.5448,
    "longitude": -46.3112
  },
  {
    "municipio": "4301008",
    "total_vinculos": "4",
    "municipio_nome": "Arroio do Meio",
    "latitude": -29.4014,
    "longitude": -51.9557
  },
  {
    "municipio": "1720903",
    "total_vinculos": "4",
    "municipio_nome": "Taguatinga",
    "latitude": -12.4026,
    "longitude": -46.437
  },
  {
    "municipio": "3128907",
    "total_vinculos": "4",
    "municipio_nome": "Guimarânia",
    "latitude": -18.8425,
    "longitude": -46.7901
  },
  {
    "municipio": "4304903",
    "total_vinculos": "4",
    "municipio_nome": "Casca",
    "latitude": -28.5605,
    "longitude": -51.9815
  },
  {
    "municipio": "4215554",
    "total_vinculos": "4",
    "municipio_nome": "Santa Helena",
    "latitude": -26.937,
    "longitude": -53.6214
  },
  {
    "municipio": "4210308",
    "total_vinculos": "4",
    "municipio_nome": "Major Vieira",
    "latitude": -26.3709,
    "longitude": -50.3266
  },
  {
    "municipio": "3539301",
    "total_vinculos": "4",
    "municipio_nome": "Pirassununga",
    "latitude": -21.996,
    "longitude": -47.4257
  },
  {
    "municipio": "3151404",
    "total_vinculos": "4",
    "municipio_nome": "Pitangui",
    "latitude": -19.6741,
    "longitude": -44.8964
  },
  {
    "municipio": "2916856",
    "total_vinculos": "4",
    "municipio_nome": "Itatim",
    "latitude": -12.7099,
    "longitude": -39.6952
  },
  {
    "municipio": "3534708",
    "total_vinculos": "4",
    "municipio_nome": "Ourinhos",
    "latitude": -22.9797,
    "longitude": -49.8697
  },
  {
    "municipio": "4200309",
    "total_vinculos": "4",
    "municipio_nome": "Agronômica",
    "latitude": -27.2662,
    "longitude": -49.708
  },
  {
    "municipio": "5107008",
    "total_vinculos": "4",
    "municipio_nome": "Poxoréu",
    "latitude": -15.8299,
    "longitude": -54.4208
  },
  {
    "municipio": "3101607",
    "total_vinculos": "4",
    "municipio_nome": "Alfenas",
    "latitude": -21.4256,
    "longitude": -45.9477
  },
  {
    "municipio": "4213104",
    "total_vinculos": "4",
    "municipio_nome": "Piratuba",
    "latitude": -27.4242,
    "longitude": -51.7668
  },
  {
    "municipio": "4304705",
    "total_vinculos": "4",
    "municipio_nome": "Carazinho",
    "latitude": -28.2958,
    "longitude": -52.7933
  },
  {
    "municipio": "4306106",
    "total_vinculos": "4",
    "municipio_nome": "Cruz Alta",
    "latitude": -28.645,
    "longitude": -53.6048
  },
  {
    "municipio": "5106273",
    "total_vinculos": "4",
    "municipio_nome": "Novo Horizonte do Norte",
    "latitude": -11.4089,
    "longitude": -57.3488
  },
  {
    "municipio": "4215901",
    "total_vinculos": "4",
    "municipio_nome": "São Bonifácio",
    "latitude": -27.9009,
    "longitude": -48.9326
  },
  {
    "municipio": "4315313",
    "total_vinculos": "4",
    "municipio_nome": "Quatro Irmãos",
    "latitude": -27.8257,
    "longitude": -52.4424
  },
  {
    "municipio": "4320230",
    "total_vinculos": "4",
    "municipio_nome": "Sede Nova",
    "latitude": -27.6367,
    "longitude": -53.9493
  },
  {
    "municipio": "4307302",
    "total_vinculos": "4",
    "municipio_nome": "Erval Seco",
    "latitude": -27.5443,
    "longitude": -53.5005
  },
  {
    "municipio": "3553203",
    "total_vinculos": "4",
    "municipio_nome": "Taiúva",
    "latitude": -21.1223,
    "longitude": -48.4528
  },
  {
    "municipio": "3525201",
    "total_vinculos": "4",
    "municipio_nome": "Jarinu",
    "latitude": -23.1039,
    "longitude": -46.728
  },
  {
    "municipio": "5211503",
    "total_vinculos": "4",
    "municipio_nome": "Itumbiara",
    "latitude": -18.4093,
    "longitude": -49.2158
  },
  {
    "municipio": "3542909",
    "total_vinculos": "4",
    "municipio_nome": "Ribeirão Bonito",
    "latitude": -22.0685,
    "longitude": -48.182
  },
  {
    "municipio": "4322103",
    "total_vinculos": "4",
    "municipio_nome": "Tucunduva",
    "latitude": -27.6573,
    "longitude": -54.4439
  },
  {
    "municipio": "4311304",
    "total_vinculos": "4",
    "municipio_nome": "Lagoa Vermelha",
    "latitude": -28.2093,
    "longitude": -51.5248
  },
  {
    "municipio": "4200200",
    "total_vinculos": "4",
    "municipio_nome": "Agrolândia",
    "latitude": -27.4087,
    "longitude": -49.822
  },
  {
    "municipio": "2806008",
    "total_vinculos": "3",
    "municipio_nome": "Ribeirópolis",
    "latitude": -10.5357,
    "longitude": -37.438
  },